id,advertiser_type,dateCreated,areaPrice,price,distance,address,location,latitude,longitude,m,rooms_num,market,building_type,floor_no,building_floors_num,building_material,windows_type,heating,build_year,construction_status,rent,building_ownership,free_from,remote_services,telewizja kablowa,domofon / wideofon,balkon,piwnica,winda,internet,rolety antywłamaniowe,ogródek,pom. użytkowe,telefon,garaż/miejsce parkingowe,oddzielna kuchnia,drzwi / okna antywłamaniowe,lodówka,meble,kuchenka,pralka,monitoring / ochrona,zmywarka,piekarnik,taras,teren zamknięty,telewizor,system alarmowy,klimatyzacja,dwupoziomowe,url
60222882,private,2/14/2020 9:34,6794,426000,6.2899,"Poznań, Stare Miasto, Piątkowo, os. Jana III Sobieskiego",93,52.4626307,16.9086197,62.7,3,secondary,block,floor_1,11,concrete_plate,plastic,urban,1980,ready_to_use,450,co_operative_ownership_with_a_land_and_mortgage_registe,2/13/2020,,1,1,1,1,1,,,,,,,,,,,,,,,,,,,,,,https://www.otodom.pl/oferta/mieszkanie-po-remoncie-jasne-ciche-sprzedam-ID44GIO.html
60575091,private,6/3/2020 21:41,6085,345000,7.5331,"Poznań, Jeżyce, Strzeszyn, ul. Biskupińska 45",105,52.4533754,16.8512665,56.7,2,secondary,,ground_floor,2,brick,plastic,gas,,ready_to_use,330,full_ownership,,,1,,,1,,1,1,1,1,,,,,,,,,,,,,,,,,,https://www.otodom.pl/oferta/sprzedaz-mieszkania-ID46alB.html
60587819,private,6/7/2020 21:17,7990,279650,1.8784,"Poznań, Nowe Miasto, ul. Piotra Tomickiego",91,52.4113031,16.9613736,35,2,secondary,block,floor_3,4,brick,plastic,urban,,to_renovation,300,co_operative_ownership,,,1,1,,1,,1,,,,1,1,1,,,,,,,,,,,,,,,https://www.otodom.pl/oferta/bez-posrednikow-mieszkanie-przy-rondzie-srodka-ID46dET.html
60064794,private,12/28/2019 11:31,8516,528000,2.1362,"Poznań, Nowe Miasto, Rataje, os. Jagiellońskie",98,52.39154502,16.94971022,62,5,secondary,block,floor_4,4,concrete_plate,plastic,urban,,ready_to_use,580,full_ownership,12/28/2019,,,1,1,1,,1,,,,,,,1,1,1,1,1,,,,,,,,,,https://www.otodom.pl/oferta/dochod-roczny-48-tys-mieszkanie-inwestycyjne-ID441B0.html
60607687,private,6/13/2020 20:36,7580,379000,5.481,"Poznań, Stare Miasto, Naramowice",90,52.45695,16.94658,50,3,secondary,block,floor_3,4,reinforced_concrete,plastic,gas,2006,ready_to_use,550,full_ownership,,,1,1,1,1,1,1,,,,1,1,,1,,1,1,,1,1,1,,,,,,,https://www.otodom.pl/oferta/blazeja-3-pok-mieszkanie-50m2-w-zielonej-okolicy-ID46iPl.html
60558143,business,5/30/2020 6:05,7659,350000,2.1276,"Poznań, Wilda",107,52.3904823,16.9224689,45.7,2,secondary,tenement,floor_5,5,brick,plastic,other,1912,ready_to_use,350,full_ownership,,,1,,,1,,1,,,,1,,,,,,,,,,,,,,,,,https://www.otodom.pl/oferta/komfortowe-i-gotowe-do-wprowadzenia-wilda-ID465Vf.html
60607437,business,6/13/2020 18:05,5577,367000,4.4328,"Poznań, Grunwald",79,52.39591,16.872,65.81,4,secondary,block,floor_4,10,,wooden,,,to_renovation,560,full_ownership,,,,,1,,1,,,,,,,,,,,,,,,,,,,,,,https://www.otodom.pl/oferta/4-niezalezne-pokoje-na-poznanskim-grunwaldzie-ID46iLj.html
60374220,private,4/2/2020 7:00,8024,329000,1.4021,"Poznań, Wilda, Dolna Wilda, ul. Dolna Wilda",5221,52.39656339,16.92634599,41,2,secondary,block,ground_floor,,brick,,urban,,ready_to_use,,,,,,,,,,,,,,,,,,1,1,1,1,,,1,,,,,,,https://www.otodom.pl/oferta/dwupokojowe-dolna-wilda-okolice-starego-browaru-ID45k5K.html
60607436,business,6/13/2020 18:05,7505,355000,3.3772,"Poznań, Stare Miasto, Winogrady",109,52.4383751,16.9404025,47.3,3,secondary,block,floor_4,4,,plastic,urban,,ready_to_use,530,co_operative_ownership,,,1,1,1,1,,1,1,,,1,,1,1,1,1,1,1,,1,1,,,,,,,https://www.otodom.pl/oferta/winogrady-trzy-pokoje-niski-blok-po-remoncie-ID46iLi.html
60607407,business,6/13/2020 17:20,7200,287856,4.4694,"Poznań, Nowe Miasto, Malta, Malta",88,52.39165896,16.99414889,39.98,2,primary,block,floor_1,4,brick,plastic,urban,2020,,,,,,,1,1,,1,,,,,,,,,,,,,,,,,,,,,,https://www.otodom.pl/oferta/nowa-inwestycja-w-okolicach-malty-ID46iKP.html
60607424,business,6/13/2020 17:45,6429,180000,2.8702,"Poznań, Wilda, ul. 28 Czerwca 1956 r.",107,52.38530345,16.91473784,28,1,secondary,tenement,floor_5,5,brick,,,2000,ready_to_use,,full_ownership,,,1,1,,,,1,,,,1,,,,1,1,,1,,,,,,,,,,https://www.otodom.pl/oferta/kawalerka-typu-mansarda-na-wildzie-180-tys-pln-ID46iL6.html
60585136,business,6/6/2020 12:15,11085,470000,2.5156,"Poznań, Jeżyce",80,52.41374,16.89816,42.4,2,secondary,,floor_4,4,brick,plastic,urban,2012,,424,,,,1,,,,,,,,,,,1,,,,,,,,,1,,,,,,https://www.otodom.pl/oferta/eleganckie-mieszkanie-z-widokiem-jezyce-ID46cXC.html
60558929,private,5/30/2020 15:13,8386,369000,1.6697,"Poznań, Nowe Miasto, Rataje, os. Piastowskie",98,52.39495605,16.94560613,44,2,secondary,block,floor_1,4,concrete_plate,plastic,urban,1970,ready_to_use,384,full_ownership,,,1,1,1,1,,1,,,,,,1,,,,,,,,,,,,,,,https://www.otodom.pl/oferta/rezerwacja-do-15-06-piastowskie-44m2-rataje-1p-ID4668W.html
60307674,private,3/8/2020 22:30,8577,419000,4.0889,"Poznań, Grunwald, Górczyn, ul. Górczyńska",78,52.3867076,16.8852853,48.85,2,secondary,apartment,floor_4,11,reinforced_concrete,plastic,urban,2012,ready_to_use,499,full_ownership,5/1/2020,,1,1,1,,1,1,,,1,,,,1,1,1,1,1,1,1,1,,1,,,,,https://www.otodom.pl/oferta/wysoki-standard-2-pokojowe-apartamenty-gorczyn-ID452Mq.html
60607398,business,6/13/2020 17:16,7744,252144,2.7815,"Poznań, Nowe Miasto, Rataje",98,52.38356,16.9408,32.56,2,primary,,,,,plastic,urban,,,,,,,,,,,1,,,1,,,,,,,,,,,,,1,,,,,,https://www.otodom.pl/oferta/32-56m2-2pok-ogrodek-rataje-wagrowska-0-ID46iKG.html
60497533,private,5/14/2020 15:55,8736,470000,4.4328,"Poznań, Grunwald",79,52.39591,16.872,53.8,2,secondary,tenement,floor_2,4,,plastic,other,,ready_to_use,220,,,,,1,1,1,,,,,1,,,,,1,1,1,1,,,1,,,,,,,https://www.otodom.pl/oferta/sprzedam-mieszkanie-ID45QaF.html
60607342,private,6/13/2020 16:26,9900,370950,0.9419,"Poznań, Stare Miasto, Strzelecka 25",103,52.4122,16.92186,37.47,1,secondary,tenement,floor_1,,brick,plastic,urban,,ready_to_use,300,full_ownership,,1,,,,,,,,,,,,1,,1,1,1,1,1,,1,,,1,,,,https://www.otodom.pl/oferta/mieszkanie-w-centrum-poznania-bez-posrednikow-ID46iJM.html
60607420,private,6/13/2020 17:44,7896,439000,2.7156,"Poznań, Wilda, ul. Fabryczna 36",107,52.3876114,16.9127167,55.6,2,secondary,tenement,floor_2,4,brick,plastic,gas,,ready_to_use,350,full_ownership,,,,1,,1,,,,,,,,,,,1,1,,,,1,,,,,,,https://www.otodom.pl/oferta/piekne-w-kamienicy-po-remoncie-2-pokoje-wilda-ID46iL2.html
60581730,business,6/5/2020 13:43,7895,346818,6.8272,"Poznań, Jeżyce",80,52.43655,16.84479,43.93,2,primary,,floor_1,5,,,urban,2020,,,,,,1,1,1,,1,1,,1,,,,,1,,,,,,,,,1,,,,,https://www.otodom.pl/oferta/na-jezycach-dwa-pokoje-balkon-mozliwosc-wykoncz-ID46c4G.html
60407551,business,4/17/2020 10:02,6769,449900,6.3786,"Poznań, Jeżyce, Strzeszyn, ul. Witolda Pileckiego",105,52.4467615,16.8644187,66.46,3,secondary,apartment,ground_floor,4,silikat,plastic,urban,2019,to_completion,400,full_ownership,6/10/2020,,1,1,,,,1,1,1,1,1,1,,1,,,,,,,,,,,1,,,https://www.otodom.pl/oferta/gotowe-3-pok-z-ogrodkiem-pileckiego-strzeszyn-ID45sLl.html
60602830,business,6/11/2020 13:30,8088,304343,1.8982,"Poznań, Nowe Miasto, Malta",88,52.4009265,16.9594198,37.63,2,primary,,floor_1,4,,,urban,2020,,,,,,1,1,1,,1,1,,1,,,,,1,,,,,,,,,,,,,,https://www.otodom.pl/oferta/promocja-dwa-pokoje-w-cenie-mieszkanie-miejsce-p-ID46hz0.html
60602832,business,6/11/2020 13:30,7141,364208,1.8982,"Poznań, Nowe Miasto, Malta",88,52.4009265,16.9594198,51,3,primary,,floor_1,4,,,urban,2020,,,,,,1,1,1,,1,1,,1,,,,,,,,,,,,,,,,1,1,,https://www.otodom.pl/oferta/promocja-w-cenie-mieszkania-miejsce-postojowe-w-h-ID46hz2.html
60602834,business,6/11/2020 13:30,7744,252144,2.7815,"Poznań, Nowe Miasto, Rataje",98,52.38356,16.9408,32.56,2,primary,,ground_floor,6,,,urban,2021,,,,,,1,1,1,,1,1,,1,,,,,1,,,,,,,,,,,,,,https://www.otodom.pl/oferta/promocja-dwa-miejsca-postojowe-w-cenie-mieszkania-ID46hz4.html
60602837,business,6/11/2020 13:30,8808,255692,2.7815,"Poznań, Nowe Miasto, Rataje",98,52.38356,16.9408,29.03,1,primary,,floor_1,6,,,urban,2021,,,,,,1,1,,,1,1,,1,,,,,1,,,,,,,,,,,,,,https://www.otodom.pl/oferta/promocja-w-cenie-kawalerki-dwa-miejsca-postojowe-ID46hz7.html
60171896,business,1/31/2020 16:33,7386,484913,6.8272,"Poznań, Jeżyce",80,52.43655,16.84479,65.65,3,primary,block,floor_1,5,brick,plastic,,2021,,,,,,,1,1,,1,,,,,,,,,,,,,,,,,,,,,,https://www.otodom.pl/oferta/jezyce-nowe-od-dewelopera-mozliwosc-wykonczenia-ID44tss.html
60171895,business,1/31/2020 16:33,8673,521683,0.2746,"Poznań, Stare Miasto, Garbary",13195,52.4087068,16.9381151,60.15,3,primary,block,floor_1,5,brick,plastic,,2020,,,,,,,1,1,,1,,,,,,,,,,,,,,,,,,,,,,https://www.otodom.pl/oferta/garbary-nowe-w-apartamentowcu-blisko-cytadeli-ID44tsr.html
60380755,business,4/4/2020 16:25,6634,392063,4.3975,"Poznań, Stare Miasto, Naramowice",90,52.4462251,16.9522169,59.1,3,primary,block,floor_1,4,brick,plastic,urban,2021,,,,,,1,1,1,,1,1,,,,,,,,,,,,,,,,,,,,,https://www.otodom.pl/oferta/mozliwosc-ukladu-niezaleznego-dwa-balkony-mozliw-ID45lN9.html
60357106,business,3/25/2020 22:25,7550,391694,1.8982,"Poznań, Nowe Miasto, Malta",88,52.4009265,16.9594198,51.88,3,primary,block,floor_1,5,brick,plastic,,,,,,,,,,,,1,,,,,,,,,,,,,,,,,,,,,,https://www.otodom.pl/oferta/atrakcyjna-cena-mozliwosc-dodatkowego-rabatu-ID45fDI.html
60160977,business,1/28/2020 19:15,9648,421147,0.2746,"Poznań, Stare Miasto, Garbary",13195,52.4087068,16.9381151,43.65,2,primary,block,floor_2,5,brick,plastic,,,,,,,,,,,,1,,,,,,,,,,,,,,,,,,,,,,https://www.otodom.pl/oferta/komfort-w-centrum-poznania-okolice-starego-rynku-ID44qCl.html
60160981,business,1/28/2020 19:15,7676,369271,6.8272,"Poznań, Jeżyce",80,52.43655,16.84479,48.11,2,primary,block,floor_1,5,brick,plastic,,,,,,,,,,,,1,,,,,,,,,,,,,,,,,,,,,,https://www.otodom.pl/oferta/nowe-od-developera-na-jezycach-mozliwosc-wykoncz-ID44qCp.html
60144715,business,1/23/2020 17:55,8473,359500,5.599,"Poznań, Grunwald",79,52.3857718,16.8602864,42.43,2,primary,block,ground_floor,3,brick,,,2020,,,,,,,,,,1,,,,,,,,,,,,,,,,1,,,,,,https://www.otodom.pl/oferta/grunwald-jawornicka-wysoki-standard-niski-blok-ID44mo3.html
59556133,business,8/6/2019 18:25,7485,434520,1.9188,"Poznań, Nowe Miasto",91,52.3995651,16.9585874,58.05,3,primary,block,floor_1,5,brick,plastic,urban,2021,,,,,,1,1,,,1,1,,,,,,,1,,,,,,,,,,,,,,https://www.otodom.pl/oferta/jedna-z-najbardziej-pozadanych-dzielnic-w-poznaniu-ID41TgN.html
60144712,business,1/23/2020 17:54,8707,311884,1.9188,"Poznań, Nowe Miasto, Rataje",98,52.3995651,16.9585874,35.82,1,primary,block,floor_2,6,brick,plastic,urban,2021,,,,,,1,1,1,,1,1,,,,,,,,,,,,,,,,,,,,,https://www.otodom.pl/oferta/polanka-nowe-od-dewelopera-mozliwosc-wykonczenia-ID44mo0.html
60194709,business,2/6/2020 16:46,7910,480392,1.9188,"Poznań, Nowe Miasto, Rataje",98,52.3995651,16.9585874,60.73,3,primary,block,floor_2,5,brick,plastic,,,,,,,,,,,,1,,,,,,,,,,,,,,,,,,,,,,https://www.otodom.pl/oferta/polanka-atrakcyjna-lokalizacja-nowe-od-dewelop-ID44zop.html
60194713,business,2/6/2020 16:46,9300,260772,1.8982,"Poznań, Nowe Miasto, Malta",88,52.4009265,16.9594198,28.04,1,primary,block,floor_2,5,brick,plastic,,2020,,,,,,,,,,1,,,,,,,,,,,,,,,,,,,,,,https://www.otodom.pl/oferta/atrakcyjna-cena-mozliwosc-dodatkowego-rabatu-i-ID44zot.html
60533277,private,5/23/2020 21:29,8622,319000,4.2804,"Poznań, Grunwald",79,52.40856961,16.8710344,37,2,secondary,block,floor_4,4,brick,plastic,urban,1965,ready_to_use,370,full_ownership,,,1,1,,1,,1,,,,,,1,,1,1,1,1,,1,1,,,,,,,https://www.otodom.pl/oferta/wyremontowane-2-pokojowe-37-m2-grunwald-prywatnie-ID45Ztb.html
60567847,business,6/2/2020 13:16,8893,450000,4.9986,"Poznań, Grunwald, ul. Rembertowska",79,52.385946,16.8701635,50.6,2,secondary,block,floor_2,6,brick,,urban,2015,ready_to_use,350,full_ownership,,,1,1,1,,1,1,,,1,,1,,,1,1,1,1,1,,,,1,,,,,https://www.otodom.pl/oferta/mieszk-2-pok-na-nowoczesnym-osiedlu-grunwald-ID468sL.html
60607111,business,6/13/2020 13:17,7090,367813,2.7815,"Poznań, Nowe Miasto, Rataje",98,52.38356,16.9408,51.88,3,primary,,ground_floor,5,,plastic,urban,,,,full_ownership,,,,,,,1,,,1,,,,1,,,,,,,,,1,,,,,,https://www.otodom.pl/oferta/malta-rataje-51-88-3-pok-garaz-w-cenie-0-ID46iG3.html
60554926,private,5/29/2020 13:12,6719,430000,5.5594,"Poznań, Stare Miasto, Piątkowo, os. Bolesława Chrobrego",93,52.45640651,16.9121194,64,3,secondary,block,ground_floor,3,concrete_plate,plastic,urban,,ready_to_use,700,full_ownership,,,1,1,1,1,,1,1,1,1,1,1,1,1,,,,,,,,,,,,,,https://www.otodom.pl/oferta/mieszkanie-3-pok-z-ogrodkiem-na-piatkowie-ID4656m.html
60607099,business,6/13/2020 13:01,6345,379114,5.481,"Poznań, Stare Miasto, Naramowice",90,52.45695,16.94658,59.75,4,primary,,ground_floor,,,plastic,urban,,to_completion,,full_ownership,,,,1,,,1,,,1,,,,,,,,,,,,,1,,,,,,https://www.otodom.pl/oferta/0-karpia-59-75m2-4-pok-0-do-odbioru-ID46iFR.html
60341030,private,3/19/2020 15:53,6730,310000,4.2437,"Poznań, Stare Miasto, Naramowice, ul. Karpia",90,52.4437446,16.9571155,46.06,3,secondary,block,floor_2,5,brick,plastic,urban,2020,to_completion,212,full_ownership,,,,1,1,,1,,,,,,1,,,,,,,,,,,,,,,,https://www.otodom.pl/oferta/mieszkanie-3-pokojowe-miejsce-garazowe-ID45bsq.html
60602673,private,6/11/2020 12:05,7156,229000,1.6803,"Poznań, Jeżyce, ul. Jana Kochanowskiego",80,52.4120243,16.910153,32,2,secondary,tenement,floor_2,5,brick,plastic,urban,,to_renovation,100,full_ownership,,,,,,,,,,1,,,1,,,,,,,,,,,,,,,,https://www.otodom.pl/oferta/mieszkanie-na-kochanowskiego-w-poznaniu-ID46hvt.html
60528381,private,5/22/2020 12:12,8381,235000,4.7109,"Poznań, Grunwald, ul. Bułgarska",79,52.40140821,16.86560066,28.04,1,primary,block,floor_4,6,breezeblock,plastic,urban,,to_completion,,full_ownership,,,1,1,1,,1,1,,,,1,1,,1,,,,,1,,,,1,,,,,https://www.otodom.pl/oferta/platnosc-10-90-grunwald-kawalerka-nowe-niski-ID45Ycd.html
60607064,business,6/13/2020 12:38,7151,379000,2.7815,"Poznań, Nowe Miasto, Rataje",98,52.38356,16.9408,53,3,secondary,block,floor_3,3,,,urban,,ready_to_use,500,,,,,1,1,1,,,,,,,,,,,,,,,,,,,,,,,https://www.otodom.pl/oferta/3-pokoje-53m2-ul-wagi-os-zodiak-rataje-malta-ID46iFi.html
60428505,private,4/24/2020 10:56,5906,378000,10.5364,"Poznań, Nowe Miasto, Głuszyna",91,52.31524393,16.9639207,64,3,secondary,block,floor_2,4,concrete_plate,plastic,boiler_room,,ready_to_use,,full_ownership,,,1,1,1,1,,1,,,,,1,1,1,,,,,,,,,,,,,,https://www.otodom.pl/oferta/mieszkanie-64m2-ul-gluszyna-3-pokoje-ID45ydj.html
60607007,business,6/13/2020 11:56,6787,319000,2.0439,"Poznań, Stare Miasto, Winogrady",109,52.42658,16.93625,47,3,secondary,block,floor_4,,brick,,urban,,ready_to_use,,,,1,,1,1,1,,,,,,,,1,,,,,,,,,,,,,,,https://www.otodom.pl/oferta/3-pok-mieszkanie-na-os-pod-lipami-pod-inwestycje-ID46iEn.html
60495913,private,5/14/2020 11:44,7800,331500,0.4958,"Poznań, Stare Miasto, Centrum, Mostowa 26",146768,52.40503338,16.93921135,42.5,2,secondary,tenement,floor_3,3,brick,plastic,gas,1905,to_completion,242.26,full_ownership,,,,1,,1,,1,,,,,,1,,,,1,,,,1,,1,,,,,https://www.otodom.pl/oferta/sprzedam-mieszkanie-w-kamienicy-mostowa-26-poznan-ID45PKx.html
60554519,private,5/29/2020 11:43,9236,399000,4.4328,"Poznań, Grunwald",79,52.39591,16.872,43.2,2,secondary,block,floor_4,4,,,urban,2019,ready_to_use,350,full_ownership,,,,1,1,1,1,,,,,,1,,1,,,1,,1,,1,,1,,1,,,https://www.otodom.pl/oferta/grunwald-nowe-gotowe-2-pokoje-43m2-przy-parku-ID464ZN.html
60586742,private,6/7/2020 11:41,11223,551290,0.6194,"Poznań, Stare Miasto, Chwaliszewo",46693,52.4091911,16.94313709,49.12,1,primary,apartment,floor_4,5,silikat,plastic,urban,2020,to_completion,,full_ownership,,,,,1,1,1,,,,,,1,,,,,,,,,,,,,,,,https://www.otodom.pl/oferta/mieszkanie-1-pokojowe-49-12-m2-4-pietro-ID46dnv.html
60606979,business,6/13/2020 11:32,7781,249000,3.4023,"Poznań, Stare Miasto, Winogrady, os. Wichrowe Wzgórze",109,52.438841,16.9344779,32,1,secondary,,floor_8,16,,plastic,urban,,ready_to_use,400,co_operative_ownership,,,1,1,1,1,1,1,,,,1,,,,,,,,1,,,,,,,,,https://www.otodom.pl/oferta/kawalerka-winogrady-z-balkonem-ID46iDW.html
60353848,private,3/24/2020 19:46,8612,399000,6.4229,"Poznań, Jeżyce, strzeszyn",80,52.44565375,16.86195614,46.33,2,secondary,block,ground_floor,4,silikat,wooden,urban,2019,ready_to_use,350,full_ownership,,,,,,,,,,,,,,,,,,,,,,,,,,,,,https://www.otodom.pl/oferta/nowa-cena-wykonczone-2-pokoje-46m2-z-2-ogrodami-ID45eNa.html
59757984,business,9/26/2019 1:15,7415,350000,2.5255,"Poznań, Nowe Miasto, Rataje, os. Oświecenia",98,52.39070765,16.95779782,47.2,3,secondary,block,floor_3,4,concrete_plate,plastic,urban,1974,ready_to_use,500,co_operative_ownership,,,1,1,1,1,,1,,,,1,,1,,,1,,,,,,,,,,,,https://www.otodom.pl/oferta/3-niezalezne-pokoje-na-ratajachpo-remoncie-ID42JMs.html
59532996,business,7/31/2019 14:55,9286,260000,0.248,"Poznań, Stare Miasto, Centrum",146768,52.40773,16.93058,28,1,primary,tenement,floor_1,4,brick,plastic,urban,,to_completion,,full_ownership,,,1,,1,,1,1,,,,1,,,,,,,,,,,,,,,,,https://www.otodom.pl/oferta/kawalerka-w-centrum500m-od-rynkupod-inwestycje-ID41NfC.html
59533054,business,7/31/2019 15:04,7000,413000,3.2594,"Poznań, Stare Miasto, Winogrady",109,52.43599977,16.94959667,59,3,primary,block,floor_1,7,,plastic,urban,2019,to_completion,,full_ownership,,,1,1,1,,1,1,,,,1,1,,,,,,,,,,,1,,,,,https://www.otodom.pl/oferta/gotowe-do-odbioruwinogradyspokojna-okolica-ID41Ngy.html
60606914,business,6/13/2020 10:50,7142,339950,2.4443,"Poznań, Stare Miasto, Winogrady, os. Przyjaźni",109,52.4293453,16.92403851,47.6,3,secondary,block,floor_3,4,,plastic,urban,1980,ready_to_use,,co_operative_ownership_with_a_land_and_mortgage_registe,,,1,,1,1,,1,,,,1,,,,,,,,,,,,,,,,,https://www.otodom.pl/oferta/sliczne-3pokojowe-po-remoncie-balkon-niski-blok-ID46iCS.html
60586690,private,6/7/2020 11:03,7504,757900,2.3615,"Poznań, Wilda, ul. Ignacego Prądzyńskiego",107,52.3900324,16.9162266,101,4,secondary,infill,floor_3,4,,plastic,,1999,to_renovation,650,co_operative_ownership_with_a_land_and_mortgage_registe,,,,1,1,,,,,,,,1,1,,,,,,,,,1,,,,,1,https://www.otodom.pl/oferta/dwupoziomowe-z-widokiem-na-centrum-wildy-zadzwon-ID46dmG.html
60377775,private,4/3/2020 12:07,7900,154366,2.5596,"Poznań, Grunwald, ul. Józefa Chełmońskiego 10",79,52.3999742,16.8989233,19.54,1,primary,tenement,cellar,4,brick,wooden,urban,1908,to_completion,100,full_ownership,4/1/2021,,1,1,,,1,1,,,,1,,,,,,,,1,,,,,,,,,https://www.otodom.pl/oferta/lokal-inwestycyjny-obok-parku-wilsona-ID45l15.html
60606863,business,6/13/2020 9:56,8290,299928,4.3067,"Poznań, Nowe Miasto, Malta",88,52.39288884,16.99241911,36.18,2,primary,block,floor_5,,brick,plastic,urban,2021,to_completion,,full_ownership,,,,,,,,,,,,,,,,,,,,,,,,,,,,,https://www.otodom.pl/oferta/2-pokojowe-mieszkanie-z-oddzielna-kuchnia-malta-ID46iC3.html
60606844,business,6/13/2020 9:48,7437,320000,4.2602,"Poznań, Nowe Miasto, Malta",88,52.39346499,16.99207579,43.03,2,primary,block,floor_2,,brick,plastic,urban,2021,to_completion,345,full_ownership,,,,,,,,,,,,,,,,,,,,,,,,,,,,,https://www.otodom.pl/oferta/2-pokojowe-mieszkanie-na-malcie-ID46iBK.html
60527524,private,5/22/2020 9:36,8310,349000,5.8476,"Poznań, Stare Miasto, Piątkowo, ul. Umultowska",93,52.460737,16.9289029,42,2,secondary,block,ground_floor,3,,,urban,,ready_to_use,280,full_ownership,,,1,1,,1,,1,,,,1,,1,1,,1,1,,,,1,,,,,,,https://www.otodom.pl/oferta/piatkowo-2-pokoje-premium-bezposrednio-okazja-ID45XYo.html
60606811,business,6/13/2020 9:18,7791,395000,4.4328,"Poznań, Grunwald",79,52.39591,16.872,50.7,2,primary,apartment,,,brick,,,,ready_to_use,,full_ownership,,,,,,,,,,,,,1,,,,,,,,,,,,,,,,https://www.otodom.pl/oferta/nowy-apartament-miejsce-parkingowe-bez-posrednika-ID46iBd.html
60606794,business,6/13/2020 9:03,9836,299000,0.248,"Poznań, Stare Miasto, Centrum, Długa 4",146768,52.40773,16.93058,30.4,1,secondary,tenement,floor_5,,brick,,,,ready_to_use,180,full_ownership,,,,,,,1,,,,,,,,,1,1,1,1,,1,,,,,,,,https://www.otodom.pl/oferta/klimatyczne-przy-starym-rynku-bez-posrednika-ID46iAV.html
60606586,business,6/13/2020 0:09,6000,342000,6.4376,"Poznań, Jeżyce, Podolany",94,52.45718,16.88339,57,2,secondary,block,floor_3,3,brick,plastic,gas,1999,ready_to_use,350,full_ownership,,1,,1,,,,,,,1,,,,,,,,,,,,1,,,,,,https://www.otodom.pl/oferta/poznan-podolany-suchy-las-57m2-2-lub3-pokoje-ID46ixA.html
60606558,private,6/12/2020 23:38,6724,390000,3.6131,"Poznań, Nowe Miasto, Rataje, os. Lecha",98,52.38658194,16.97383404,58,3,secondary,block,floor_1,11,concrete_plate,plastic,urban,,ready_to_use,,co_operative_ownership,,,1,1,1,1,1,1,1,,,1,,,,,1,,,,,,,,,,,,https://www.otodom.pl/oferta/3-pokojowe-mieszkanie-od-zaraz-rataje-os-lecha-ID46ix8.html
60420404,business,4/21/2020 18:11,9765,490000,2.6983,"Poznań, Wilda, ul. Pamiątkowa",107,52.3866595,16.9159585,50.18,3,secondary,tenement,floor_3,4,brick,plastic,urban,1940,ready_to_use,300,full_ownership,6/20/2020,,1,1,,,,1,,,,1,,,1,1,1,1,1,,,,,1,,,,,https://www.otodom.pl/oferta/trzy-kawalerki-na-wildzie-3800-zl-mc-czynszu-najmu-ID45v6E.html
60407559,business,4/17/2020 10:05,9322,499000,6.0622,"Poznań, Jeżyce, Strzeszyn, ul. Tadeusza Mikke",105,52.444194,16.8669195,53.53,3,secondary,apartment,floor_1,4,silikat,wooden,urban,2019,ready_to_use,450,full_ownership,6/5/2020,1,1,1,1,,,1,,,1,1,1,,,,,1,,,,1,,,,,,,https://www.otodom.pl/oferta/wymarzone-ekskluzywne-mieszkanie-zielony-strzeszyn-ID45sLt.html
60539448,private,5/25/2020 21:28,7728,466000,3.5086,"Poznań, Grunwald, Łazarz",87,52.3913229,16.8904848,60.3,3,secondary,tenement,ground_floor,6,brick,plastic,urban,1958,ready_to_use,500,full_ownership,,,1,1,,1,,1,,,1,,,,,1,1,1,,,,,,,,,,,https://www.otodom.pl/oferta/klimatyczne-3-pokojowe-doskonala-lokalizacja-ID4614I.html
60606246,private,6/12/2020 21:26,11500,293020,0.428,"Poznań, Stare Miasto, ul. Romana Szymańskiego 8",103,52.4052932,16.9300836,25.48,1,primary,tenement,floor_3,4,brick,plastic,urban,,,,full_ownership,,,1,1,1,,,1,,,,1,,,1,,,,,,,,,1,,,,,https://www.otodom.pl/oferta/stylowe-z-balkonem-w-kamienicy-centrum-bezposr-ID46is6.html
60483223,private,5/11/2020 16:41,7110,465000,2.5542,"Poznań, Stare Miasto, Winogrady, os. Pod Lipami",109,52.43090307,16.94032208,65.4,3,secondary,block,ground_floor,4,,plastic,urban,,ready_to_use,750,co_operative_ownership_with_a_land_and_mortgage_registe,,,1,1,1,1,,1,1,,,,,1,1,1,1,1,,,,1,,,,,,,https://www.otodom.pl/oferta/wyjatkowe-mieszkanie-os-pod-lipami-bezposrednio-ID45MrR.html
60322162,private,3/12/2020 12:56,7250,609000,4.3808,"Poznań, Stare Miasto, Piątkowo, os. Bolesława Śmiałego",93,52.44693288,16.92192833,84,6,secondary,block,floor_9,10,concrete_plate,plastic,urban,1970,ready_to_use,707,co_operative_ownership,3/12/2020,,,,1,1,1,1,,,,1,1,1,,1,1,1,1,,,1,1,,,,,,https://www.otodom.pl/oferta/100-wynajete-75-tys-zl-przychodu-w-rok-6-pok-ID456y6.html
60434274,private,4/26/2020 20:03,8306,299000,5.7529,"Poznań, Stare Miasto, Piątkowo, ul. Franciszka Stróżyńskiego",93,52.45644552,16.9033005,36,1,secondary,block,ground_floor,4,brick,plastic,urban,2003,ready_to_use,403,full_ownership,,,,1,1,,,1,1,,1,,,,,1,1,1,1,,,1,,,,,,,https://www.otodom.pl/oferta/zadbana-kawalerka-na-zamknietym-osiedlu-ID45zIm.html
60584436,private,6/5/2020 23:48,6841,340000,5.1433,"Poznań, Grunwald, ul. Jana Keplera 8",79,52.3903877,16.8642017,49.7,2,secondary,block,floor_5,11,concrete_plate,plastic,urban,1980,ready_to_use,599,co_operative_ownership,,,1,1,1,1,1,1,,,,,,1,,1,,1,,,1,1,,,,,,,https://www.otodom.pl/oferta/mieszkanie-dwupokojowe-na-grunwaldzie-ID46cMk.html
60405407,business,4/16/2020 13:40,6533,399000,4.844,"Poznań, Jeżyce, Podolany, ul. Jasielska",94,52.4440584,16.8934622,61.07,3,secondary,apartment,floor_4,5,silikat,plastic,urban,2020,to_completion,480,full_ownership,6/15/2020,1,1,1,1,,,1,,,,1,,,1,,,,,1,,,,1,,1,,,https://www.otodom.pl/oferta/3-pokojowe-podolany-nowe-gotowe-do-wykonczenia-ID45scL.html
60419648,business,4/21/2020 14:46,6756,449000,6.2023,"Poznań, Jeżyce, Strzeszyn, Pileckiego 5",105,52.44532485,16.86579959,66.46,3,secondary,apartment,ground_floor,4,silikat,plastic,urban,2019,ready_to_use,400,full_ownership,6/11/2020,,1,1,,,,1,1,1,,1,1,,1,,,,,1,,,,,,,,,https://www.otodom.pl/oferta/st-dew-3-pok-z-ogrodkiem-pileckiego-strzeszyn-ID45wUs.html
59791516,business,10/4/2019 10:47,7020,313302.6,2.4505,"Poznań, Nowe Miasto, Śródka, ul. Zaniemyska",102,52.4120493,16.969724,44.63,2,primary,block,floor_2,2,silikat,plastic,gas,2020,to_completion,,full_ownership,10/31/2020,,,,1,,,,,,1,,1,,,,,,,,,,,,,,,,https://www.otodom.pl/oferta/2-pokoje-44-m2-wkrotce-odbior-ID42Swi.html
59791548,business,10/4/2019 10:52,6966,395390.16,2.4505,"Poznań, Nowe Miasto, Śródka, ul. Zaniemyska",102,52.4120493,16.969724,56.76,3,primary,block,floor_2,2,silikat,plastic,gas,2020,to_completion,,full_ownership,10/31/2020,,,,1,,,,,,1,,1,,,,,,,,,,,,,,,,https://www.otodom.pl/oferta/3-pokoje-56-m2-wkrotce-odbior-ID42SwO.html
59791289,business,10/4/2019 9:46,6966,353942.46,2.4505,"Poznań, Nowe Miasto, Śródka, ul. Zaniemyska",102,52.4120493,16.969724,50.81,3,primary,block,floor_2,2,silikat,plastic,gas,2020,to_completion,,full_ownership,10/31/2020,,,,1,,,,,,1,,1,,,,,,,,,,,,,,,,https://www.otodom.pl/oferta/zaniemyska-23-50-m2-wkrotce-odbior-wybor-garazy-ID42SrD.html
60606024,business,6/12/2020 18:48,8808,255692,2.632,"Poznań, Nowe Miasto, Rataje",98,52.38555073,16.94517737,29.03,1,primary,block,floor_1,6,,plastic,urban,,to_completion,,,3/30/2021,1,1,1,1,,1,1,,,,1,1,,1,,,,,,,,,,,,,,https://www.otodom.pl/oferta/hot-1pok-29-03m2-w-cenie-2-x-miejsce-postojow-hms-ID46iov.html
60605999,business,6/12/2020 18:29,9200,601956,2.2554,"Poznań, Jeżyce, Sołacz",100,52.42220868,16.91001981,65.43,3,primary,apartment,floor_1,5,,,,2020,to_completion,,,12/30/2020,1,1,1,1,,1,1,,,,1,1,,1,,,,,,,,1,,,,,,https://www.otodom.pl/oferta/apartament-65-43m2-taras-22m2-garderoba-solacz-ID46io7.html
55970984,private,9/30/2018 21:22,7785,369000,5.056,"Poznań, Wilda, Dębiec, ul.Łozowa 22",74,52.3657628,16.9075593,47.4,2,secondary,block,floor_7,8,concrete_plate,plastic,urban,1960,ready_to_use,370,full_ownership,1/1/1980,,1,1,,1,,1,,,,1,,1,,1,1,1,,,1,1,,,,,,,https://www.otodom.pl/oferta/po-kapitalnym-remoncie-pod-klucz-2-w-1-ID3MQBO.html
60605934,business,6/12/2020 18:12,6690,469000,3.8757,"Poznań, Nowe Miasto, Rataje, os. Orła Białego",98,52.3790374,16.9653188,70.1,3,secondary,block,floor_3,10,concrete_plate,plastic,urban,,ready_to_use,670,co_operative_ownership_with_a_land_and_mortgage_registe,,,1,,1,1,1,1,,,1,,,1,1,,1,1,,,,1,,,,,,,https://www.otodom.pl/oferta/perla-w-koronie-orla-bialego-doskonala-lokalizacja-ID46in4.html
60328233,private,3/14/2020 20:35,7939,389000,3.0934,"Poznań, Nowe Miasto, Rataje, ul. Krańcowa",98,52.4106405,16.9795747,49,3,secondary,block,floor_2,10,,plastic,urban,1970,ready_to_use,530,co_operative_ownership,,,,1,1,1,1,,,,1,,,1,,,,,,,,,,,,,,,https://www.otodom.pl/oferta/3-pok-po-generalnym-romoncie-balkon-i-piwnica-ID45881.html
60605752,business,6/12/2020 16:55,7976,335000,3.3912,"Poznań, Nowe Miasto, Rataje, os. Lecha",98,52.3889994,16.9729178,42,2,secondary,block,floor_9,11,concrete_plate,plastic,urban,1970,ready_to_use,550,full_ownership,,,,,,1,,,,,,,,1,,,,,,,,,,,,,,,https://www.otodom.pl/oferta/inwestycja-2-pokoje-zielone-rataje-ID46ik8.html
60510328,business,5/18/2020 14:49,8677,364000,6.0622,"Poznań, Jeżyce, Strzeszyn, ul. Tadeusza Mikke",105,52.444194,16.8669195,41.95,2,secondary,apartment,floor_3,4,silikat,wooden,urban,2019,ready_to_use,152,full_ownership,6/5/2020,,1,1,1,,1,1,,,1,1,1,,1,,,1,,1,,,,,,,,,https://www.otodom.pl/oferta/wymarzone-strzeszyn-2-pokoje-pod-klucz-ID45Tw2.html
59360604,private,6/14/2019 16:01,6582,427850,3.208,"Poznań, Stare Miasto, Winogrady, os. Zwycięstwa",109,52.4367374,16.926713,65,4,secondary,block,floor_1,4,other,plastic,urban,1982,ready_to_use,545.8,full_ownership,,,1,1,1,1,,1,,,,,,1,,1,1,1,1,1,,1,,,1,,,,https://www.otodom.pl/oferta/winogrady-i-pietro-65m2-ID414p6.html
60605602,business,6/12/2020 16:00,7500,344025,1.7435,"Poznań, Nowe Miasto",91,52.39994559,16.95594736,45.87,2,primary,block,ground_floor,5,breezeblock,,urban,2021,to_completion,,,,,,,,1,1,,,,1,,1,,,,,,,,,,,,,,,,https://www.otodom.pl/oferta/doskonala-lokalizacja-0-prowizji-0-pcc-ID46ihI.html
60605573,business,6/12/2020 15:50,7600,579272,1.744,"Poznań, Nowe Miasto",91,52.39993577,16.95594501,76.22,3,primary,block,floor_5,5,breezeblock,,urban,2021,to_completion,,,,,,,1,1,1,,,,1,,1,,,,,,,,,,,,,,,,https://www.otodom.pl/oferta/doskonala-lokalizacja-0-prowizji-0-pcc-ID46ihf.html
60010497,business,12/5/2019 7:53,7250,549912.5,2.4012,"Poznań, Nowe Miasto, Rataje, ul. Katowicka",98,52.3977423,16.9650684,75.85,4,primary,,floor_5,6,,,,2022,,,,,,1,,1,,1,1,,,,1,1,,,,,,,,,,,,,,,,https://www.otodom.pl/oferta/poznan-katowicka-mieszkanie-5-09-ID43Ntf.html
59995668,business,11/30/2019 14:49,7500,568875,2.4012,"Poznań, Nowe Miasto, Rataje, ul. Katowicka",98,52.3977423,16.9650684,75.85,4,primary,,floor_5,6,,,,2022,,,,,,1,,1,,1,1,,,,1,1,,,,,,,,,,,,,,,,https://www.otodom.pl/oferta/poznan-katowicka-mieszkanie-5-27-ID43JC4.html
59995671,business,11/30/2019 14:51,8250,484852.5,2.4012,"Poznań, Nowe Miasto, Rataje, ul. Katowicka",98,52.3977423,16.9650684,58.77,2,primary,,floor_5,6,,,,2022,,,,,,1,,1,,1,1,,,,1,1,,,,,,,,,,,,,,,,https://www.otodom.pl/oferta/poznan-katowicka-mieszkanie-5-14-ID43JC7.html
59995673,business,11/30/2019 14:52,9250,300625,2.4012,"Poznań, Nowe Miasto, Rataje, ul. Katowicka",98,52.3977423,16.9650684,32.5,2,primary,,floor_5,6,,,,2022,,,,,,1,,1,,1,1,,,,1,1,,,,,,,,,,,,,,,,https://www.otodom.pl/oferta/poznan-katowicka-mieszkanie-5-39-ID43JC9.html
59995679,business,11/30/2019 14:55,8750,443362.5,2.4012,"Poznań, Nowe Miasto, Rataje, ul. Katowicka",98,52.3977423,16.9650684,50.67,3,primary,,floor_5,6,,,,2022,,,,,,1,,1,,1,1,,,,1,1,,,,,,,,,,,,,,,,https://www.otodom.pl/oferta/poznan-katowicka-mieszkanie-5-45-ID43JCf.html
59995684,business,11/30/2019 14:56,8000,575840,2.4012,"Poznań, Nowe Miasto, Rataje, ul. Katowicka",98,52.3977423,16.9650684,71.98,3,primary,,floor_5,6,,,,2022,,,,,,1,,1,,1,1,,,,1,1,,,,,,,,,,,,,,,,https://www.otodom.pl/oferta/poznan-katowicka-mieszkanie-5-01-ID43JCk.html
60010493,business,12/5/2019 7:49,9250,370092.5,2.4012,"Poznań, Nowe Miasto, Rataje, ul. Katowicka",98,52.3977423,16.9650684,40.01,2,primary,,floor_5,6,,,,2022,,,,,,1,,1,,1,1,,,,1,1,,,,,,,,,,,,,,,,https://www.otodom.pl/oferta/poznan-katowicka-mieszkanie-5-28-ID43Ntb.html
60010495,business,12/5/2019 7:52,9250,300625,2.4012,"Poznań, Nowe Miasto, Rataje, ul. Katowicka",98,52.3977423,16.9650684,32.5,2,primary,,floor_5,6,,,,2022,,,,,,1,,1,,1,1,,,,1,1,,,,,,,,,,,,,,,,https://www.otodom.pl/oferta/poznan-katowicka-mieszkanie-5-41-ID43Ntd.html
60605553,business,6/12/2020 15:42,7511,582300,5.4165,"Poznań, Grunwald",79,52.39012,16.86003,77.53,4,primary,block,floor_2,3,,,urban,2020,to_completion,,full_ownership,,,1,1,1,,1,1,,,,,1,,,,,,,1,,,,,,,,,https://www.otodom.pl/oferta/komfortowe-mieszkanie-4-pokoje-grunwald-ID46igW.html
60605554,business,6/12/2020 15:42,8290,299928,4.167,"Poznań, Nowe Miasto",91,52.39465,16.99138,36.18,2,primary,block,floor_5,5,,,,2021,to_completion,,full_ownership,,,1,1,1,,1,1,,,1,,1,,,,,,,,,,,,,,,,https://www.otodom.pl/oferta/promocja-miejsce-postojowe-w-cenie-ID46igV.html
60605506,business,6/12/2020 15:30,8846,532086.9,0.976,"Poznań, Stare Miasto, Garbary",103,52.41686961,16.93147659,60.15,3,primary,block,floor_1,6,,,urban,2020,to_completion,,full_ownership,,,,,1,,1,,,,,,1,,,,,,,1,,,,,,,,,https://www.otodom.pl/oferta/0-pcc-0-prowizji-100-satysfakcji-ID46iga.html
60513276,business,5/19/2020 8:35,7529,515000,4.844,"Poznań, Jeżyce, Podolany",94,52.4440584,16.8934622,68.4,3,secondary,block,floor_4,5,brick,plastic,urban,2014,ready_to_use,500,full_ownership,,,1,,1,,1,1,,,,,1,1,,,,,,,,,,,,,,,https://www.otodom.pl/oferta/3-pokoje-z-duzym-balkonem-na-podolanach-ID45UgA.html
60126287,business,1/18/2020 22:13,5706,469000,3.8814,"Poznań, Nowe Miasto, Rataje, os. Orła Białego",98,52.37754414,16.96137059,82.2,4,secondary,block,floor_7,10,concrete_plate,wooden,urban,1984,,670,co_operative_ownership_with_a_land_and_mortgage_registe,,,1,1,1,1,1,1,,,,,,1,1,1,,1,1,,,1,,,,,,,https://www.otodom.pl/oferta/duze-przestronne-mieszkanie-4-pokojowe-rataje-ID44hAP.html
60605356,business,6/12/2020 14:51,7200,337896,5.3299,"Poznań, Stare Miasto, Naramowice",90,52.4558154,16.9437899,46.93,3,primary,block,floor_1,2,,,,,,,,,,,,,,,,,,,,,,,,,,,,,,,,,,,,https://www.otodom.pl/oferta/mieszkania-przy-ul-blazeja-ID46idK.html
60605355,business,6/12/2020 14:51,7200,322056,5.3299,"Poznań, Stare Miasto, Naramowice",90,52.4558154,16.9437899,44.73,2,primary,block,ground_floor,2,,,,,,,,,,,,,,,,,,,,,,,,,,,,,,,,,,,,https://www.otodom.pl/oferta/mieszkanie-w-poznaniu-z-ogrodkiem-ID46idJ.html
60605354,business,6/12/2020 14:51,7200,321120,5.3299,"Poznań, Stare Miasto, Naramowice",90,52.4558154,16.9437899,44.6,2,primary,block,floor_2,2,,,,,,,,,,,,,,,,,,,,1,,,,,,,,,,,,,,,,https://www.otodom.pl/oferta/nowe-mieszkania-w-poznaniu-ID46idI.html
60311226,private,3/9/2020 17:56,7593,410000,4.3779,"Poznań, Grunwald, ul. Rynarzewska",79,52.3901324,16.87684,54,2,secondary,block,floor_2,6,,plastic,urban,2009,ready_to_use,500,full_ownership,3/9/2020,,1,1,1,,1,1,1,,1,1,1,1,1,1,1,1,1,1,,1,,1,1,,,,https://www.otodom.pl/oferta/wyposazone-mieszkanie-54m2-balkon-garaz-ochrona-ID453HI.html
60605314,business,6/12/2020 14:41,7950,566835,2.7402,"Poznań, Jeżyce, Winiary",108,52.42972,16.91432,71.3,4,primary,,floor_1,5,,,,2022,ready_to_use,,,6/1/2021,,,,,,,,,1,,,,,,,,,,,,,1,,,,,,https://www.otodom.pl/oferta/rodzinne-mieszkanie-piatkowo-71m2-ID46id4.html
60605312,business,6/12/2020 14:41,7950,333900,2.7402,"Poznań, Jeżyce, Winiary",108,52.42972,16.91432,42,2,primary,,ground_floor,5,,,,2020,ready_to_use,,,6/1/2021,,,,,,,,,1,,,,,,,,,,,,,1,,,,,,https://www.otodom.pl/oferta/sloneczne-mieszkanie-2-pokoje-z-tarasem-piatkowska-ID46id2.html
60605313,business,6/12/2020 14:41,7163,643200,5.4165,"Poznań, Grunwald",79,52.39012,16.86003,89.79,4,primary,block,ground_floor,3,,,urban,2020,to_completion,,full_ownership,,,1,1,,,1,1,,1,,,1,,,,,,,1,,,1,,,,,,https://www.otodom.pl/oferta/komfortowe-mieszkanie-z-ogrodkiem-grunwald-ID46id3.html
60489953,business,5/12/2020 21:30,9406,479700,3.586,"Poznań, Wilda",107,52.37772,16.91707,51,3,secondary,tenement,floor_1,4,brick,plastic,,,ready_to_use,186,full_ownership,,,,,,1,,1,,,,,,,,1,1,1,1,,,,,,,,,,https://www.otodom.pl/oferta/3-kawalerki-w-jednej-lokalizacji-spacer-3d-ID45Ocp.html
60605210,business,6/12/2020 14:24,7200,325800,5.3299,"Poznań, Stare Miasto, Naramowice",90,52.4558154,16.9437899,45.25,2,primary,block,floor_2,2,,,,,,,,,,,,,,,,,,,,1,,,,,,,,,,,,,,,,https://www.otodom.pl/oferta/nowe-mieszkania-na-naramowicach-ID46ibo.html
60487801,business,5/12/2020 15:40,8532,529000,2.6983,"Poznań, Wilda, Dolna Wilda, ul. Pamiątkowa",5221,52.3866595,16.9159585,62,3,secondary,tenement,floor_4,4,brick,plastic,urban,,ready_to_use,,full_ownership,,,,,,,,1,,,,,,,,1,1,1,1,,,,,,,,,,https://www.otodom.pl/oferta/mieszkanie-inwestycyjne-3-kawalerki-wilda-roi-9-ID45NDH.html
60605209,business,6/12/2020 14:24,7200,345600,5.3299,"Poznań, Stare Miasto, Naramowice",90,52.4558154,16.9437899,48,2,primary,block,floor_2,2,,,,,,,,,,,,,,,,,,,,1,,,,,,,,,,,,,,,,https://www.otodom.pl/oferta/mieszkanie-w-poznaniu-naramowice-ID46ibn.html
60605207,business,6/12/2020 14:23,7200,342576,5.3299,"Poznań, Stare Miasto, Naramowice",90,52.4558154,16.9437899,47.58,2,primary,block,floor_2,2,,,,,,,,,,,,,,,,,,,,1,,,,,,,,,,,,,,,,https://www.otodom.pl/oferta/mieszkanie-2-pokojowe-w-poznaniu-ID46ibl.html
60605206,business,6/12/2020 14:23,7200,213840,5.3299,"Poznań, Stare Miasto, Naramowice",90,52.4558154,16.9437899,29.7,1,primary,block,ground_floor,2,,,,2020,,,,,,,,,,,,,,,,1,,,,,,,,,,,,,,,,https://www.otodom.pl/oferta/mieszkanie-w-poznaniu-ID46ibk.html
60605205,business,6/12/2020 14:23,7200,221544,5.3299,"Poznań, Stare Miasto, Naramowice",90,52.4558154,16.9437899,30.77,1,primary,block,ground_floor,2,,,,,,,,,,,,,,,,,,,,1,,,,,,,,,,,,,,,,https://www.otodom.pl/oferta/kawalerka-na-ul-blazeja-naramowice-ID46ibj.html
60605204,business,6/12/2020 14:23,7200,221544,5.3299,"Poznań, Stare Miasto, Naramowice",90,52.4558154,16.9437899,30.77,1,primary,block,floor_2,2,,,,,,,,,,,,,,,,,,,,1,,,,,,,,,,,,,,,,https://www.otodom.pl/oferta/mieszkanie-w-poznaniu-ID46ibi.html
60605203,business,6/12/2020 14:23,7200,221544,5.3299,"Poznań, Stare Miasto, Naramowice",90,52.4558154,16.9437899,30.77,1,primary,block,floor_1,3,,,,,,,,,,,,,,,,,,,,1,,,,,,,,,,,,,,,,https://www.otodom.pl/oferta/kawalerka-poznan-ul-blazeja-ID46ibh.html
60605202,business,6/12/2020 14:23,7200,221544,5.3299,"Poznań, Stare Miasto, Naramowice",90,52.4558154,16.9437899,30.77,1,primary,block,floor_1,3,,,,,,,,,,,,,,,,,,,,1,,,,,,,,,,,,,,,,https://www.otodom.pl/oferta/atrakcyjne-mieszkania-poznan-ul-blazeja-ID46ibg.html
60605201,business,6/12/2020 14:23,7200,453960,5.3299,"Poznań, Stare Miasto, Naramowice",90,52.4558154,16.9437899,63.05,3,primary,block,floor_2,,,,,,to_completion,,,,,,,,,,,,,,,1,,,,,,,,,,,,,,,,https://www.otodom.pl/oferta/mieszkanie-63-05-m-poznan-ID46ibf.html
60605200,business,6/12/2020 14:23,7200,457920,5.3315,"Poznań, Stare Miasto, Naramowice, Błażeja",90,52.45606006,16.93997383,63.6,3,secondary,block,ground_floor,,,,,,,,,,,,,,,,,,,,,1,,,,,,,,,,,,,,,,https://www.otodom.pl/oferta/mieszkania-na-sprzedaz-poznan-naramowice-ID46ibe.html
60349129,business,3/23/2020 11:41,7041,510015.5,4.6576,"Poznań, Grunwald, Ławica, ul. Bułgarska 59",86,52.4031363,16.8659869,72.43,3,primary,,,,,,,2020,to_completion,,,,,1,1,1,,1,,,,,1,1,,,,,,,1,,,,1,,,,,https://www.otodom.pl/oferta/mieszkanie-w-inwestycji-bulgarska-59-nr-b2-1-7-1-ID45dz3.html
60349398,business,3/23/2020 12:42,7376,538442.44,4.6576,"Poznań, Grunwald, Ławica, ul. Bułgarska 59",86,52.4031363,16.8659869,73,3,primary,,,,,,,2020,to_completion,,,,,1,1,1,,1,,,,,1,1,,,,,,,1,,,,1,,,,,https://www.otodom.pl/oferta/mieszkanie-w-inwestycji-bulgarska-59-nr-b2-1-14-1-ID45dDo.html
60407691,business,4/17/2020 10:54,6869,419204.08,4.6576,"Poznań, Grunwald, Ławica, ul. Bułgarska 59",86,52.4031363,16.8659869,61.03,3,primary,,,,,,,2020,to_completion,,,,,1,1,1,,1,,,,,1,1,,,,,,,1,,,,1,,,,,https://www.otodom.pl/oferta/mieszkanie-w-inwestycji-bulgarska-59-nr-b2-2-3-3-ID45sNB.html
60348763,business,3/23/2020 9:54,6552,480192.91,4.6576,"Poznań, Grunwald, Ławica, ul. Bułgarska 59",86,52.4031363,16.8659869,73.29,4,primary,,,,,,,2020,to_completion,,,,,1,1,1,,1,1,,,,1,1,,,,,,,1,,,,1,,,,,https://www.otodom.pl/oferta/mieszkanie-w-inwestycji-bulgarska-59-nr-b1-2-1-7-ID45dt9.html
60348902,business,3/23/2020 10:50,7177,533677.09,4.6576,"Poznań, Grunwald, Ławica, ul. Bułgarska 59",86,52.4031363,16.8659869,74.36,3,primary,,,,,,,2020,to_completion,,,,,1,1,1,,1,,,,,1,1,,,,,,,1,,,,1,,,,,https://www.otodom.pl/oferta/mieszkanie-w-inwestycji-bulgarska-59-nr-b3-1-4-1-ID45dwo.html
60348943,business,3/23/2020 11:02,7299,495769.24,4.6576,"Poznań, Grunwald, Ławica, ul. Bułgarska 59",86,52.4031363,16.8659869,67.92,3,primary,,,,,,,2020,to_completion,,,,,1,1,1,,1,,,,,1,1,,,,,,,1,,,,1,,,,,https://www.otodom.pl/oferta/mieszkanie-w-inwestycji-bulgarska-59-nr-b3-1-4-4-ID45dv3.html
60419457,private,4/21/2020 14:09,6926,377000,4.4328,"Poznań, Grunwald, Bułgarska 59",79,52.39591,16.872,54.43,3,primary,block,floor_5,14,brick,plastic,urban,2020,to_completion,240,full_ownership,6/11/2020,,1,1,1,,1,1,1,,,1,,1,1,,,,,1,,,,,,1,,,https://www.otodom.pl/oferta/nowe-3-pok-10-2020-grunwald-bulgarska-59-garaz-ID45wRn.html
60605143,business,6/12/2020 14:01,7200,457920,5.3299,"Poznań, Stare Miasto, Naramowice",90,52.4558154,16.9437899,63.6,3,secondary,block,floor_1,,,,,2020,,,,,,,,,,,,,,,,1,,,,,,,,,,,,,,,,https://www.otodom.pl/oferta/mieszkania-poznan-ul-blazeja-ID46iaj.html
59418313,private,7/1/2019 20:17,5725,540268.25,6.0219,"Poznań, Grunwald, Świerczewo, ul. Pszczyńska 19",106,52.36871288,16.87347798,94.37,4,primary,ribbon,,2,silikat,plastic,gas,2019,to_completion,,full_ownership,,,1,1,,,,1,1,1,,1,1,1,,,,,,,,,1,1,,,,1,https://www.otodom.pl/oferta/pszczynska-19-mieszkanie-b2-94m2-z-ogrodkiem-ID41jpT.html
60550896,business,5/28/2020 13:33,8283,389700,3.7053,"Poznań, Wilda, Dolna Wilda",5221,52.37625,16.91886,47.05,2,secondary,tenement,ground_floor,6,brick,plastic,electrical,1930,ready_to_use,141,full_ownership,,,1,,,,,1,,,,1,,,,1,1,1,1,,,,,,,,,,https://www.otodom.pl/oferta/mieszkanie-inwestycyjne-2-kawalerki-2500-zl-mies-ID4643m.html
60605053,business,6/12/2020 13:30,7962,314981,2.9878,"Poznań, Nowe Miasto, Malta, abp. Walentego Dymka",88,52.39833411,16.97507858,39.56,2,primary,block,ground_floor,5,,,urban,2021,to_completion,,,,,,,,,1,,,,,,1,,,,,,,,,,,,,,,,https://www.otodom.pl/oferta/wielka-promocja-0-prowizji-0-pcc-ID46i8R.html
59562964,private,8/8/2019 11:43,6809,405000,4.8552,"Poznań, Grunwald, ul. Bułgarska",79,52.40153912,16.86341198,59.48,3,primary,apartment,floor_higher_10,14,silikat,plastic,urban,2020,to_completion,,full_ownership,,,1,1,1,,1,1,,,,1,1,,1,,,,,1,,,,1,,,,,https://www.otodom.pl/oferta/bulgarska-59-3-pokoje-iii-kwartal-2020-ID41W2Y.html
60604988,business,6/12/2020 13:16,7200,213840,5.3299,"Poznań, Stare Miasto, Naramowice, ul. Błażeja",90,52.4558154,16.9437899,29.7,1,primary,block,ground_floor,2,,,,,,,,,,,,,,,,,1,,,,,,,,,,,,,,,,,,,https://www.otodom.pl/oferta/mieszkanie-poznan-naramowice-ID46i7O.html
60604961,business,6/12/2020 13:10,9032,460519,0.976,"Poznań, Stare Miasto, Garbary",103,52.41686961,16.93147659,50.99,2,primary,block,floor_1,6,,,urban,2020,to_completion,,,,,,,,,1,,,,,,1,,,,,,,1,,,,,,,,,https://www.otodom.pl/oferta/0-pcc-0-prowizji-100-satysfakcji-ID46i7n.html
59571097,private,8/10/2019 9:08,8500,763980,3.4389,"Poznań, Grunwald, Grodziska 21",79,52.40711662,16.8834727,89.88,4,secondary,tenement,ground_floor,2,brick,plastic,gas,,to_renovation,200,full_ownership,,,,1,,1,,,,1,,,1,1,,,,,,,,,1,1,,,,,https://www.otodom.pl/oferta/mieszkanie-na-grunwaldzie-z-ogrodem-i-tarasem-ID41Xa9.html
60315746,private,3/10/2020 17:45,8100,832680,3.437,"Poznań, Grunwald, ul. Grodziska",79,52.40724738,16.88349316,102.8,4,secondary,tenement,floor_1,2,brick,plastic,gas,,to_renovation,200,full_ownership,,,,1,1,1,,,,,,,1,1,,,,,,,,,1,1,,,,,https://www.otodom.pl/oferta/mieszkanie-grunwald-z-duzym-tarasem-i-balkonem-ID454SC.html
60604900,business,6/12/2020 12:50,7616,425421,3.3234,"Poznań, Nowe Miasto, Wagrowska",91,52.3789966,16.9442442,55.86,4,primary,block,floor_6,8,breezeblock,,urban,2021,to_completion,,,,,,,1,,1,,,,,,1,,,,,,,,,,,,,,,,https://www.otodom.pl/oferta/promocja-bez-prowizji-0-pcc-ID46i6o.html
60317128,private,3/11/2020 7:08,8100,833652,3.4419,"Poznań, Grunwald, ul. Grodziska",79,52.40711648,16.88342878,102.92,4,secondary,tenement,floor_2,2,brick,plastic,gas,,to_completion,200,full_ownership,,,,1,,,,,,,,,1,1,,,,,,,,,,1,,,1,,https://www.otodom.pl/oferta/kamienica-po-rewitalizacji-grunwald-deweloperski-ID455eU.html
60604898,business,6/12/2020 12:50,8454,343069,3.3234,"Poznań, Nowe Miasto, Wagrowska",91,52.3789966,16.9442442,40.58,2,primary,block,floor_6,8,breezeblock,,urban,2021,to_completion,,,,,,,1,,1,,,,,,1,,,,,,,,,,,,,,,,https://www.otodom.pl/oferta/wielka-promocja-bez-prowizji-0-pcc-ID46i6m.html
60328228,private,3/14/2020 20:33,5568,245000,2.6364,"Poznań, Grunwald, Łazarz, ul. Kolejowa",87,52.392432,16.9051786,44,2,secondary,tenement,floor_3,3,brick,wooden,urban,,to_renovation,270,full_ownership,5/15/2020,,,,,1,,1,,,,,1,1,,,,,,,,,,,,,,,https://www.otodom.pl/oferta/mieszkanie-okazja-do-remontu-duze-mozliwosci-tanio-ID4587V.html
60347706,business,3/22/2020 15:35,8032,249000,2.8621,"Poznań, Grunwald, Łazarz, ul. Głogowska",87,52.39430437,16.8986701,31,1,primary,tenement,floor_4,5,brick,plastic,gas,,to_completion,,full_ownership,,,1,1,,1,,1,,,,1,,,1,,,,,,,,,1,,,,,https://www.otodom.pl/oferta/powrot-oferty-w-kamienicy-rewitalizacja-w-toku-ID45dc6.html
60034768,private,12/12/2019 15:04,6385,415000,2.8157,"Poznań, Stare Miasto, Winogrady, os. Przyjaźni",109,52.43323141,16.92740881,65,3,secondary,block,floor_1,4,,plastic,urban,1985,to_renovation,500,full_ownership,1/1/2020,,1,1,1,1,,1,,,,1,,1,,,,,,,,,,,,,,,https://www.otodom.pl/oferta/winogrady-3-4-pokojowe-mieszkanie-os-przyjazni-ID43TMI.html
60604738,business,6/12/2020 11:59,8808,255692,2.7815,"Poznań, Nowe Miasto, Rataje",98,52.38356,16.9408,29.03,1,primary,,,,,plastic,urban,,,,,,,,,1,,1,,,,,,,,,,,,,,,,,,,,,,https://www.otodom.pl/oferta/29-03m2-kawalerka-rataje-wagrowska-0-okazja-ID46i3M.html
60563048,private,6/1/2020 12:53,11553,439000,1.6891,"Poznań, Wilda, ul. Wierzbięcice",107,52.39503956,16.92182598,38,2,secondary,tenement,floor_1,3,brick,plastic,gas,1962,ready_to_use,300,full_ownership,,,1,1,1,1,,1,,,1,,1,1,,1,1,1,1,1,,1,1,1,1,,,,https://www.otodom.pl/oferta/mieszkanie-850m-od-starego-browaru-parking-taras-ID467dm.html
60385351,business,4/6/2020 22:13,8478,585000,4.8715,"Poznań, Nowe Miasto",91,52.37832,16.98658,69,3,secondary,apartment,floor_1,4,brick,plastic,urban,2006,ready_to_use,560,full_ownership,,,1,1,1,,1,1,1,,,,1,,,1,1,1,1,1,1,1,,,,,,,https://www.otodom.pl/oferta/apartament-malta-katowicka-komfort-winda-garaz-ID45mZh.html
60604699,business,6/12/2020 11:44,8750,355075,4.8715,"Poznań, Nowe Miasto",91,52.37832,16.98658,40.58,2,primary,apartment,floor_6,8,breezeblock,plastic,urban,2021,to_completion,,,,,1,1,1,,1,1,,,,,1,,,,,,,,,,,,,,,,https://www.otodom.pl/oferta/2-pojoje-swietna-lokalizacja-1-a-6-4-ID46i39.html
60604674,business,6/12/2020 11:40,9850,278853.5,4.8715,"Poznań, Nowe Miasto",91,52.37832,16.98658,28.31,1,primary,apartment,floor_6,8,breezeblock,plastic,urban,2021,to_completion,,,,,1,1,1,,1,1,,,,,1,,,,,,,,,,,,,,,,https://www.otodom.pl/oferta/przytulna-kawalerka-1-a-6-10-ID46i2K.html
60604667,business,6/12/2020 11:36,7900,445876,4.8715,"Poznań, Nowe Miasto",91,52.37832,16.98658,56.44,4,primary,apartment,floor_6,8,breezeblock,plastic,urban,2021,to_completion,,,,,1,1,1,,1,1,,,,,1,,,,,,,,,,,,,,,,https://www.otodom.pl/oferta/duze-4-pokojowe-mieszkanie-1-a-6-1-ID46i2D.html
59873631,private,10/25/2019 16:28,7074,382000,0.042,"Poznań, Stare Miasto, Naramowice",90,52.40827,16.93352,54,2,secondary,block,floor_2,4,,plastic,urban,2010,ready_to_use,,full_ownership,,,1,1,,,,,,,,,1,,1,1,,1,,,1,,,,,,,,https://www.otodom.pl/oferta/2-pokoje-54m2-ul-karpia-naramowice-ID43dRJ.html
60604629,business,6/12/2020 11:26,7298,389000,2.7815,"Poznań, Nowe Miasto, Rataje",98,52.38356,16.9408,53.3,3,secondary,block,floor_4,4,concrete_plate,plastic,urban,1970,to_renovation,600,co_operative_ownership,,,,,1,1,,,,,,,,,,,,,,,,,,,,,,,https://www.otodom.pl/oferta/wygodne-3-pokoje-na-os-piastowskim-ID46i21.html
60604619,business,6/12/2020 11:25,12691,349000,0.5506,"Poznań, Stare Miasto, Centrum, Długa",146768,52.40361885,16.93123504,27.5,2,secondary,tenement,floor_2,4,brick,plastic,gas,1950,ready_to_use,150,full_ownership,,,1,,,,,1,,,,,,,,,,,,,,,,,,,,,https://www.otodom.pl/oferta/mikro-apartament-w-scislym-centrum-ID46i1R.html
60604603,business,6/12/2020 11:19,7778,420000,3.3463,"Poznań, Wilda, ul. Saperska 46",107,52.3797245,16.918382,54,2,secondary,block,floor_1,4,other,plastic,urban,2006,ready_to_use,,full_ownership,6/12/2020,1,1,1,1,,1,1,,,,,,1,,1,1,1,1,1,1,1,,1,1,,,,https://www.otodom.pl/oferta/prezentacja-online-virtual-tour-ID46i1B.html
60604597,business,6/12/2020 11:15,9109,419000,3.049,"Poznań, Nowe Miasto, Żegrze",18856,52.3882807,16.9649494,46,2,secondary,apartment,ground_floor,4,silikat,plastic,urban,2014,ready_to_use,400,full_ownership,,,,1,,,1,1,1,,,,,,,,1,1,,,1,,,1,,,,,https://www.otodom.pl/oferta/mieszkanie-2-pok-na-ul-inflanckiej-zapraszam-ID46i1w.html
60604498,business,6/12/2020 10:54,6990,499000,5.1858,"Poznań, Stare Miasto, Naramowice, ul. Naramowicka",90,52.45434799,16.94568608,71.39,3,secondary,apartment,floor_1,4,brick,wooden,urban,2008,ready_to_use,,full_ownership,,1,,1,,,1,,,,,,1,,,1,1,1,1,1,,1,1,1,,,,,https://www.otodom.pl/oferta/piekne-3-pokoje-taras-24-m2-2-m-ca-postojowe-ID46hZU.html
60423781,business,4/22/2020 18:36,7150,345917,3.3798,"Poznań, Nowe Miasto, Rataje",98,52.37868758,16.94577818,48.38,3,primary,block,floor_5,8,brick,plastic,urban,2021,to_completion,,,,,1,1,1,,1,1,,,,1,,,,,,,,,,,,,,,,,https://www.otodom.pl/oferta/ostatnie-i-najtansze-3-pok-hit-inwestycyjny-ID45vZ7.html
60571881,business,6/3/2020 11:55,8011,446600,5.6727,"Poznań, Grunwald",79,52.39072467,16.85560634,55.75,3,primary,apartment,floor_1,3,,plastic,urban,2020,to_completion,,full_ownership,,,1,1,1,1,1,1,,,1,1,1,,,,,,,1,,,,1,,,,,https://www.otodom.pl/oferta/ostatanie-3-pokoje-gotowe-w-lipcu-ID469wP.html
60513961,business,5/19/2020 11:36,8418,729000,2.5555,"Poznań, Jeżyce, ul. Maksymiliana Jackowskiego 32",80,52.4101495,16.8965917,86.6,3,secondary,tenement,floor_2,3,brick,wooden,gas,,ready_to_use,300,full_ownership,,,1,1,,1,,1,,,1,,,1,,,1,1,1,,1,1,,,,,,,https://www.otodom.pl/oferta/jezyce-jackowskiego-stylowe-3-pokoje-ID45UrD.html
60604419,business,6/12/2020 10:19,9800,468146,2.3293,"Poznań, Jeżyce, Sołacz",100,52.42273383,16.90933468,47.77,2,primary,ribbon,ground_floor,5,,,,,,,,12/30/2020,1,1,1,,,1,1,,,,1,1,,1,,,,,,,,1,,,,,,https://www.otodom.pl/oferta/apartament-47-77m2-taras-35m2-garderoba-solacz-ID46hYD.html
60460292,business,5/5/2020 13:51,6426,563945,2.301,"Poznań, Nowe Miasto, Malta",88,52.3966,16.96218,87.76,3,primary,,floor_3,5,brick,plastic,urban,2020,to_completion,,full_ownership,12/1/2020,,,,1,,1,,,,,,1,,,,,,,,,,,,,,,,https://www.otodom.pl/oferta/przestronne-3-pokoje-polanka-jezioro-maltanskie-ID45Gu0.html
60243456,business,2/19/2020 23:34,6111,220000,1.336,"Poznań, Nowe Miasto, Śródka",102,52.41115,16.95325,36,2,secondary,block,ground_floor,4,,plastic,,,to_renovation,,,,,1,1,,1,,1,,,,1,1,,,,,,,,,,,,,,,,https://www.otodom.pl/oferta/wyremontujemy-to-mieszkanie-dla-ciebie-ID44M4E.html
60529659,business,5/22/2020 15:15,6774,359000,3.4023,"Poznań, Stare Miasto, Winogrady",109,52.438841,16.9344779,53,3,secondary,block,floor_4,4,,plastic,,,to_renovation,295,co_operative_ownership,,,,,1,1,,,,,,,,,,,,,,,,,,,,,,,https://www.otodom.pl/oferta/os-wichrowe-wzgorze-53m2-3-pokoje-balkon-ID45YvP.html
60266410,business,2/26/2020 15:01,6842,520000,4.3446,"Poznań, Stare Miasto, Piątkowo",93,52.4469024,16.924835,76,3,secondary,block,floor_3,3,,plastic,,,,550,,,,,,1,,,,,,,,1,,,,,,,,,,,,,,,,https://www.otodom.pl/oferta/dwupoziomowe-3-pokojowe-mieszkanie-b-smialego-ID44S2S.html
60592302,business,6/8/2020 20:02,7347,360000,3.9862,"Poznań, Nowe Miasto, Rataje, os. Orła Białego",98,52.38022,16.97078,49,2,secondary,block,floor_higher_10,16,,plastic,urban,1994,,500,co_operative_ownership,7/1/2020,,1,,1,1,1,1,,,,,,1,,,,,,,,,,,,,,,https://www.otodom.pl/oferta/mieszkanie-z-fantastycznym-widokiem-ID46ePc.html
60407726,business,4/17/2020 11:01,7973,299000,0.6243,"Poznań, Stare Miasto, Centrum, Czartoria",146768,52.40795,16.94333,37.5,1,secondary,,floor_4,4,,plastic,urban,2000,,350,full_ownership,,,1,,,,,1,,,,1,,,,,,,,,,,,,,,,,https://www.otodom.pl/oferta/kawalerka-centrum-chwaliszewo-czartoria-ID45sOa.html
59870644,business,10/25/2019 2:05,7767,699000,0.5216,"Poznań, Stare Miasto, Centrum",146768,52.403567,16.93353,90,3,secondary,tenement,floor_1,4,brick,plastic,,,,810,,,,,,,,1,,,,,,,,,,,,,,,,,,,,,,https://www.otodom.pl/oferta/stylowe-mieszkanie-blisko-starego-rynku-ID43d5y.html
60327338,business,3/14/2020 11:00,13834,635000,1.9014,"Poznań, Stare Miasto, Winogrady, Za Cytadelą",109,52.4251829,16.9303092,45.9,2,secondary,apartment,floor_1,4,brick,,urban,2018,ready_to_use,500,full_ownership,,,,,1,,1,,,,,,,,,,,,,1,,,,,,,,,https://www.otodom.pl/oferta/wirtualny-spacer-nowa-cena-za-cytadela-122-ID457TA.html
60454984,business,5/4/2020 11:20,9257,748000,1.8888,"Poznań, Stare Miasto, Winogrady, Żniwna",109,52.42455765,16.9263804,80.8,3,secondary,block,floor_3,3,brick,,urban,1997,ready_to_use,850,co_operative_ownership,,,,,1,,,,,,,,1,,,,,,,,,,,,,,,,https://www.otodom.pl/oferta/200-m-od-cytadeli-wirtualny-spacer-ID45F6o.html
60344617,business,3/20/2020 17:20,8953,479000,2.7171,"Poznań, Stare Miasto, Winogrady, Wilczak",109,52.43036054,16.95117474,53.5,3,secondary,block,ground_floor,5,,,urban,2016,ready_to_use,500,full_ownership,,,,,,,1,,,1,,,1,,,,,,,1,,,,,,,,,https://www.otodom.pl/oferta/wirtualny-spacer-osiedle-zamkniete-garaz-ID45coh.html
60361632,business,3/27/2020 16:10,10624,710500,1.7577,"Poznań, Jeżyce, Jana Henryka Dąbrowskiego",80,52.4121134,16.9090121,66.88,3,secondary,apartment,floor_3,5,brick,,urban,2014,ready_to_use,600,full_ownership,,,,,,,1,,,,,,1,,,,,,,1,,,,,,,,,https://www.otodom.pl/oferta/okazjadwa-balkony-wirtualny-spacer-ID45gOI.html
60499556,business,5/15/2020 9:20,6970,437000,4.9285,"Poznań, Stare Miasto, Piątkowo, os. Bolesława Chrobrego",93,52.45119728,16.91619873,62.7,3,secondary,block,floor_1,11,concrete_plate,,urban,1975,ready_to_use,550,co_operative_ownership,,,,,,1,1,,,,1,,,1,,,,,,,,,,,,,,,https://www.otodom.pl/oferta/blisko-trasa-pst-1-pietro-spacer-3d-ID45QHi.html
60537924,business,5/25/2020 15:40,7417,319000,4.4129,"Poznań, Grunwald, Ognik",79,52.407603,16.8690872,43.01,2,secondary,block,floor_4,4,concrete_plate,,urban,1976,ready_to_use,390,co_operative_ownership,,,,,,1,,,,,1,,,1,,,,,,,,,,,,,,,https://www.otodom.pl/oferta/wirtualny-spacer-nowa-cena-ideal-inwestora-ID460G8.html
60465221,business,5/6/2020 13:40,6692,435000,2.8938,"Poznań, Stare Miasto, Winogrady, os. Przyjaźni",109,52.43326493,16.9224,65,4,secondary,block,floor_2,4,concrete_plate,,urban,1980,ready_to_use,644,co_operative_ownership,,,,,1,1,,,,,1,,,1,,,,,,,,,,,,,,,https://www.otodom.pl/oferta/wirtualny-spacer-dla-studentow-blisko-pst-ID45HLw.html
59416913,business,7/1/2019 15:40,8396,445000,0.3115,"Poznań, Nowe Miasto, Mogileńska",91,52.4058435,16.93176842,53,2,secondary,apartment,ground_floor,3,brick,plastic,urban,2010,ready_to_use,450,full_ownership,,,,,,,,,,,,,1,1,,,,,,1,,,,,,,,,https://www.otodom.pl/oferta/mieszkanie-53m2-jezioro-malta-balkon-ochrona-ID41j3j.html
60254677,business,2/23/2020 18:40,7619,899000,2.2406,"Poznań, Grunwald, Łazarz, Śniadeckich",87,52.399691,16.9042299,118,4,secondary,tenement,ground_floor,4,brick,plastic,,1920,ready_to_use,560,full_ownership,,,1,,1,1,,1,,,1,1,,,,,,,,,,,,,,,,,https://www.otodom.pl/oferta/inwestycja-5-000-zl-netto-zwrotu-miesiecznie-ID44OZD.html
58953456,business,5/1/2019 22:50,6291,799000,2.2189,"Poznań, Grunwald, Łazarz, Parkowa",87,52.40182905,16.9031629,127,5,secondary,tenement,floor_3,4,brick,,urban,1930,ready_to_use,950,co_operative_ownership_with_a_land_and_mortgage_registe,,,,,1,1,,,,,1,,,1,,,,,,,,,,,,,,,https://www.otodom.pl/oferta/doskonala-inwestycja-127-m2-ul-parkowa-mtp-ID3Zmuc.html
55375080,business,8/22/2018 9:55,7695,344200,5.4608,"Poznań, Grunwald, ul. Smardzewska",79,52.3895311,16.8597182,44.73,2,primary,block,floor_3,3,,wooden,urban,2019,to_completion,,full_ownership,7/30/2020,,1,1,1,,1,1,,,,,1,,,,,,,,,,,,,,,,https://www.otodom.pl/oferta/grunwald-kameralny-blok-mieszkania-2-3i4-pokojowe-ID3KlAs.html
60604295,business,6/12/2020 9:33,8450,240064,2.7381,"Poznań, Nowe Miasto, Rataje",98,52.38555073,16.94981222,28.41,1,primary,block,ground_floor,6,,plastic,urban,,to_completion,,,3/30/2021,1,,1,,,1,,,1,,,1,,1,,,,,,,,1,,,,,,https://www.otodom.pl/oferta/najtansza-kawalerka-28-41m2-z-tarasem-i-kw-2021-ID46hVD.html
59645672,business,8/30/2019 22:22,11097,949000,0.469,"Poznań, Stare Miasto, Centrum, Kaziemierza Wielkiego",146768,52.40448356,16.93727479,85.52,3,secondary,apartment,floor_3,5,brick,wooden,urban,2009,ready_to_use,,full_ownership,8/30/2019,,1,1,1,,1,1,,,1,,1,1,1,1,1,1,1,1,1,1,1,1,1,,1,,https://www.otodom.pl/oferta/3-pokoje-85mkw-kazimierza-wielkiego-park-warta-ID42gyY.html
60549528,private,5/28/2020 8:34,9500,570000,4.9994,"Poznań, Grunwald, ul. Rembertowska",79,52.38574955,16.87033516,60,3,secondary,apartment,floor_1,5,brick,,urban,2014,ready_to_use,350,full_ownership,,,1,1,1,,1,1,,,,1,1,1,,1,1,1,1,1,1,1,,1,1,,,,https://www.otodom.pl/oferta/z-widokiem-na-park-2-duze-balkony-winda-garaz-ID463Hi.html
60462127,private,5/5/2020 20:51,9326,429000,5.2809,"Poznań, Grunwald, Rembertowska",79,52.38314327,16.86806065,46,2,secondary,block,floor_4,4,,plastic,urban,2019,ready_to_use,,full_ownership,3/5/2019,,1,1,1,,1,1,1,,1,1,1,,1,,1,1,,,,1,,1,,,,,https://www.otodom.pl/oferta/wykonczone-2-pok-46m-kw-obok-parku-grunwald-ID45GXB.html
60557220,business,5/29/2020 19:15,7950,258852,3.3459,"Poznań, Nowe Miasto, Rataje",98,52.37884477,16.94466238,32.56,2,primary,block,ground_floor,8,brick,plastic,urban,2021,to_completion,,full_ownership,,,1,1,,,1,1,,1,,1,,,1,,,,,,,,1,,,,,,https://www.otodom.pl/oferta/zabezpiecz-swoje-pieniadze-przed-inflacja-rabaty-ID465Hm.html
60596888,business,6/9/2020 20:00,6300,552258,2.2427,"Poznań, Nowe Miasto, Malta",88,52.39592664,16.96031843,87.66,3,primary,block,ground_floor,5,brick,plastic,urban,2021,to_completion,,full_ownership,,,1,1,,,1,1,,,,1,,,1,,,,,,,,1,,,,,,https://www.otodom.pl/oferta/top-lokalizacja-duuzy-taras-i-tylko-6-300-zl-m2-ID46g1a.html
60603808,business,6/11/2020 22:32,7000,350000,1.156,"Poznań, Stare Miasto, Centrum, ul. Dolna Wilda",146768,52.39884157,16.92686097,50,2,secondary,block,floor_3,4,other,plastic,electrical,1990,ready_to_use,290,full_ownership,,,1,1,1,,,1,,,,1,1,,1,1,1,,1,,1,1,,1,,,,,https://www.otodom.pl/oferta/centrum-2-pokojowe-50-m2-cena-299000zl-ID46hOM.html
60134222,business,1/21/2020 12:24,8915,419000,2.7651,"Poznań, Stare Miasto, Wilczak, ul. Wilczak",3610,52.4306995,16.9516552,47,2,primary,apartment,ground_floor,5,cellular_concrete,plastic,urban,2019,ready_to_use,390,full_ownership,6/9/2020,1,1,1,,,1,1,1,1,,1,,,1,,,1,,1,1,1,1,1,,1,,,https://www.otodom.pl/oferta/nowe-wykonczone-pod-klucz-bezposrednio-brak-pcc-ID44jEO.html
60590492,business,6/8/2020 14:39,8915,419000,2.0439,"Poznań, Stare Miasto, Winogrady",109,52.42658,16.93625,47,2,primary,apartment,ground_floor,5,cellular_concrete,plastic,urban,2019,ready_to_use,390,full_ownership,6/9/2020,1,1,1,,,1,1,1,1,,1,1,,1,,1,1,,1,1,1,1,1,,,,,https://www.otodom.pl/oferta/nowe-wykonczone-pod-klucz-taras-i-ogrodek-ID46em0.html
60603798,business,6/11/2020 22:23,7528,399000,1.7313,"Poznań, Stare Miasto, Centrum, ul. Dolina",146768,52.39403543,16.92369614,53,2,secondary,block,floor_4,4,other,plastic,urban,1990,ready_to_use,600,full_ownership,,,1,1,1,,,1,,,,1,1,1,1,1,1,1,1,,,1,,1,,,,,https://www.otodom.pl/oferta/centrum-2-pok-53m2-nowy-blok-balkon-399000zl-ID46hOC.html
60603796,business,6/11/2020 22:19,7528,399000,2.493,"Poznań, Wilda, ul. Zmartwychwstańców",107,52.38720991,16.92141157,53,2,secondary,block,floor_1,5,other,plastic,urban,1990,ready_to_use,300,full_ownership,,,1,1,1,1,,1,,,,1,,1,1,,1,1,1,,,,,1,,,,,https://www.otodom.pl/oferta/wilda-blok-2-pokojowe-53-m2-cena-399000zl-balkon-ID46hOA.html
60565719,private,6/1/2020 21:56,9413,224500,3.0757,"Poznań, Nowe Miasto, Śródka, ul. Nadolnik",102,52.42351703,16.97195069,23.85,2,secondary,tenement,floor_1,3,brick,plastic,gas,1950,ready_to_use,225,full_ownership,,,1,1,,,,1,,,,1,,,1,1,1,1,1,1,,1,,,1,,,,https://www.otodom.pl/oferta/gotowiec-inwestycyjny-dwie-kawalerki-dla-inwestora-ID467Ur.html
60463893,private,5/6/2020 11:31,10250,246000,2.2527,"Poznań, Jeżyce, Sołacz, ul. Nad Wierzbakiem",100,52.4211881,16.9085856,24,1,secondary,block,floor_4,4,brick,plastic,urban,1970,ready_to_use,180,co_operative_ownership,6/14/2020,1,1,1,1,1,,1,,,1,1,,1,1,,1,1,,,,1,,1,,,,,https://www.otodom.pl/oferta/piekna-po-remoncie-kawalerka-solacz-cegla-wolne-ID45Hq5.html
60548842,private,5/27/2020 21:28,9285,560000,6.2044,"Poznań, Grunwald, ul. Jeleniogórska",79,52.39234481,16.846474,60.31,3,secondary,block,ground_floor,4,breezeblock,plastic,urban,2014,ready_to_use,540,full_ownership,,,,1,,1,1,1,,1,,,1,,1,1,1,1,1,1,1,1,1,1,1,,,,https://www.otodom.pl/oferta/mieszkanie-z-ogrodkiem-hala-garazowa-schowek-ID463ve.html
60482929,private,5/11/2020 15:49,11458,550000,5.8457,"Poznań, Stare Miasto, os. Stefana Batorego",103,52.4604254,16.9236279,48,2,secondary,block,floor_4,5,breezeblock,plastic,urban,2014,ready_to_use,,full_ownership,,,1,1,1,,1,1,1,,,1,1,,1,,,,,1,,,1,,,,,,https://www.otodom.pl/oferta/batorego-48-m2-luksusowe-wyposazenie-ID45Mn7.html
60603709,business,6/11/2020 21:18,6267,460000,4.5441,"Poznań, Stare Miasto, Piątkowo",93,52.44910775,16.93499868,73.4,3,secondary,block,floor_3,4,brick,plastic,urban,,ready_to_use,,full_ownership,,,1,1,1,,,1,1,,1,1,,,,,,1,,,,1,,,,,,1,https://www.otodom.pl/oferta/piatkowo-niski-blok-cegla-nietuzinkowe-ID46hNb.html
60603657,business,6/11/2020 20:45,7723,390000,2.705,"Poznań, Nowe Miasto, Warszawska",91,52.4102934,16.973877,50.5,3,secondary,block,floor_3,4,brick,,urban,1964,ready_to_use,530,co_operative_ownership,,,,,1,1,,,,,1,,,1,,,,,,,,,,,,,,,https://www.otodom.pl/oferta/ustawne-mieszkanie-do-wprowadzenia-okolice-malty-ID46hMl.html
60565400,private,6/1/2020 20:12,8487,830000,1.6194,"Poznań, Wilda, Jana Spychalskiego",107,52.39542617,16.9227992,97.8,4,secondary,tenement,ground_floor,6,brick,plastic,gas,,ready_to_use,258,full_ownership,,,1,1,,,,1,1,,,1,,,1,1,1,1,1,,1,1,,,,,,,https://www.otodom.pl/oferta/inwestycja-na-poznanskiej-wildzie4-pak-kawalerek-ID467Pi.html
59930523,private,11/12/2019 18:41,10682,235000,6.6001,"Poznań, Jeżyce, Podolany, ul. Edwarda Raczyńskiego",94,52.45795325,16.88093,22,1,secondary,block,floor_1,4,concrete_plate,plastic,urban,,ready_to_use,350,co_operative_ownership,11/12/2019,,1,1,,1,,1,,,,,,,1,1,1,,1,,,,,,1,,,,https://www.otodom.pl/oferta/atrakcyjna-kawalerka-podolany-raczynskiego-ID43sFl.html
60603609,private,6/11/2020 20:02,10263,390000,0.5455,"Poznań, Stare Miasto, ul. Strzałowa",103,52.403516,16.9319862,38,1,secondary,infill,floor_1,5,brick,plastic,urban,2005,ready_to_use,400,full_ownership,,,1,1,,,1,1,,,,1,1,,,1,1,1,1,1,,1,,1,,,,,https://www.otodom.pl/oferta/sprzedam-kawalerke-z-miejscem-postojowym-w-centrum-ID46hLz.html
60583654,private,6/5/2020 19:37,8095,510000,1.7367,"Poznań, Jeżyce, Poznańska",80,52.41408151,16.91038863,63,2,secondary,tenement,floor_2,3,brick,wooden,urban,1910,ready_to_use,450,full_ownership,,,1,1,,,,1,,,,1,,,1,1,1,1,,,1,1,,1,,,1,,https://www.otodom.pl/oferta/dwupoziomowe-w-kamienicy-jezyce-63m2-ID46czI.html
60505036,private,5/16/2020 19:11,6013,348000,4.3644,"Poznań, Grunwald, Zgoda 14",79,52.38370516,16.88393047,57.87,2,secondary,tenement,floor_2,3,brick,plastic,gas,1910,ready_to_use,180,full_ownership,,,1,1,,,,1,,,,1,1,,,,1,1,,,,,,,,,,,https://www.otodom.pl/oferta/mieszkanie-poznan-gorczyn-58m2-bezposrednio-ID45S7G.html
60565163,private,6/1/2020 18:47,8798,286800,3.4166,"Poznań, Nowe Miasto, Rataje, ul. Wagrowska",98,52.3784763,16.9466339,32.6,2,primary,block,floor_1,6,breezeblock,plastic,urban,2021,to_completion,150,full_ownership,3/30/2021,,1,1,1,,,1,,,,1,1,,1,,,,,,,,,,,,,,https://www.otodom.pl/oferta/0-pcc-bezposrednio-miejsce-postojowe-gratis-ID467Lt.html
60603446,business,6/11/2020 18:40,6522,450000,3.9926,"Poznań, Nowe Miasto, Malta, Chartowa",88,52.3873827,16.9820374,69,4,primary,block,floor_3,5,,plastic,urban,2020,to_completion,,full_ownership,,,,1,1,1,1,,,,,,,,,,,,,1,,,,1,,,,,https://www.otodom.pl/oferta/okazja-blisko-galerii-7km-do-centrum-z-balkon-ID46hIV.html
60603447,business,6/11/2020 18:40,6696,375000,2.8718,"Poznań, Nowe Miasto, Rataje, Hetmańska",98,52.3838118,16.9204071,56,3,primary,,floor_6,6,,,urban,2020,to_completion,,full_ownership,,,,1,1,1,1,,,,,,,,,,,,,1,,,,1,,,,,https://www.otodom.pl/oferta/oferta-promocyjna-z-2-garazami-blisko-centrum-ID46hIX.html
60603448,business,6/11/2020 18:40,6780,339000,3.9926,"Poznań, Nowe Miasto, Malta, Chartowa",88,52.3873827,16.9820374,50,3,primary,block,floor_2,5,,plastic,urban,2020,to_completion,,full_ownership,,,,1,1,1,1,,,,,,,,,,,,,1,,,,1,,,,,https://www.otodom.pl/oferta/deweloper-pietro-lub-ogrodek-wybierz-ID46hIY.html
60603445,business,6/11/2020 18:40,6477,285000,3.9926,"Poznań, Nowe Miasto, Malta, Chartowa",88,52.3873827,16.9820374,44,2,primary,block,floor_2,5,,plastic,urban,2020,to_completion,,,,,,1,1,1,1,,,,,,,,,,,,,1,,,,1,,,,,https://www.otodom.pl/oferta/oferta-promocyjna-blisko-galerii-7km-do-centrum-ID46hIW.html
60603438,business,6/11/2020 18:35,7586,220000,2.8718,"Poznań, Nowe Miasto, Rataje, Hetmańska",98,52.3838118,16.9204071,29,1,primary,,floor_1,6,,,,2020,to_completion,,full_ownership,,,,1,1,1,1,,,,,,,,,,,,,1,,,,1,,,,,https://www.otodom.pl/oferta/oferta-promocyjna-idealne-dla-inwestora-ID46hIO.html
60603436,business,6/11/2020 18:35,7780,319000,2.8718,"Poznań, Nowe Miasto, Rataje, Hetmańska",98,52.3838118,16.9204071,41,2,primary,,floor_6,6,,,,2020,to_completion,,full_ownership,,,,1,,1,1,,,1,,,,,,,,,,1,,,,1,,,,,https://www.otodom.pl/oferta/ostatnie-pietro-sloneczne-4km-do-centrum-ID46hIM.html
60603435,business,6/11/2020 18:35,8000,240000,3.9926,"Poznań, Nowe Miasto, Malta, Chartowa",88,52.3873827,16.9820374,30,2,primary,block,floor_2,5,,plastic,urban,2020,to_completion,,,,,,1,1,1,1,,,,,,,,,,,,,1,,,,1,,,,,https://www.otodom.pl/oferta/okazja-blisko-galerii-7km-do-centrum-ID46hIL.html
60320818,private,3/11/2020 22:18,8988,289500,2.1999,"Poznań, Nowe Miasto, Rataje, Poznań, ul. Czesława Niemena 5",98,52.39595074,16.95954816,32.21,1,primary,block,floor_1,5,reinforced_concrete,plastic,urban,2020,to_completion,250,full_ownership,12/1/2020,,,1,1,,1,,,,,,1,,1,,,,,,,,,,,,,,https://www.otodom.pl/oferta/ostatnia-kawalerka-w-przy-galerii-posnania-1090-ID456cq.html
60497589,business,5/14/2020 16:02,9456,194797,2.5596,"Poznań, Grunwald, Łazarz",87,52.3999742,16.8989233,20.6,1,secondary,tenement,ground_floor,4,brick,wooden,urban,1902,to_completion,,full_ownership,,,1,,,,1,1,,,,1,,,,,,,,,,,,,,,,,https://www.otodom.pl/oferta/inwestycja-w-prestizowej-kamienicy-biala-cegla-ID45Qbz.html
60586266,business,6/6/2020 22:13,9456,194797.5,2.5596,"Poznań, Grunwald, Łazarz",87,52.3999742,16.8989233,20.6,1,secondary,tenement,ground_floor,4,brick,wooden,urban,1902,to_completion,,full_ownership,,,1,,,,1,1,,,,1,,,,,,,,,,,,,,,,,https://www.otodom.pl/oferta/ekskluzywny-apartament-ID46dfQ.html
60603345,business,6/11/2020 17:49,7141,364208,2.7815,"Poznań, Nowe Miasto, Rataje",98,52.38356,16.9408,51,3,primary,,,,,plastic,urban,,,,full_ownership,,,,,1,,1,,,,,,,,,,,,,,,,,,,,,,https://www.otodom.pl/oferta/biuro-sprzedazy-malta-rataje-51-00-3-pok-0-ID46hHj.html
60603308,business,6/11/2020 17:35,7805,320000,4.4328,"Poznań, Grunwald",79,52.39591,16.872,41,2,secondary,block,floor_1,4,brick,wooden,urban,,ready_to_use,350,co_operative_ownership,,,,,1,1,,,,,,,1,1,,,1,,,,,,,,,,,,https://www.otodom.pl/oferta/zgrabne-2pokoje-z-jasna-kuchnia-na-grunwaldzie-ID46hGI.html
60603291,private,6/11/2020 17:24,10000,680000,4.3428,"Poznań, Stare Miasto, Piątkowo, os. Bolesława Śmiałego 38",93,52.44657976,16.92188542,68,3,secondary,block,ground_floor,4,silikat,plastic,urban,2016,ready_to_use,540,full_ownership,6/15/2020,1,1,1,,,1,1,1,1,,,1,1,1,1,1,1,1,,1,1,,,,,,,https://www.otodom.pl/oferta/bezposrednio-sprzedam-mieszkanie-z-2-miejscami-ID46hGr.html
60504824,private,5/16/2020 17:10,11500,302565,0.428,"Poznań, Stare Miasto, ul. Romana Szymańskiego 8",103,52.4052932,16.9300836,26.31,1,primary,tenement,floor_3,4,brick,plastic,urban,,,,full_ownership,,,1,1,,,,1,,,,1,,,1,,,,,,,,,1,,,,,https://www.otodom.pl/oferta/stylowe-studio-w-kamienicy-centrum-bezposr-fv-ID45S4g.html
59961060,business,11/20/2019 22:54,6531,529000,5.8457,"Poznań, Stare Miasto, Piątkowo, os. Stefana Batorego",93,52.4604254,16.9236279,81,4,secondary,block,floor_3,4,breezeblock,plastic,urban,,ready_to_use,860,full_ownership,11/20/2019,,1,1,1,1,,1,,,,,,1,,1,1,1,1,,1,1,,,1,,,,https://www.otodom.pl/oferta/mieszkanie-81-m-poznan-ID43ABS.html
60564718,private,6/1/2020 16:59,6859,439000,2.6776,"Poznań, Stare Miasto, Winogrady, os. Przyjaźni 22",109,52.4321848,16.9298979,64,3,secondary,block,floor_1,,,plastic,urban,,ready_to_use,,full_ownership,,,,,,,,,,,,,,,,,,,,,,,,,,,,,https://www.otodom.pl/oferta/mieszkanie-3-pokojowe-ID467Ei.html
60552221,private,5/28/2020 17:01,9778,440000,6.0833,"Poznań, Stare Miasto, Piątkowo, os. Stefana Batorego 55",93,52.46260223,16.92397122,45,2,secondary,block,ground_floor,5,brick,plastic,urban,2014,ready_to_use,400,full_ownership,,,1,1,,,1,1,1,1,,,1,1,1,1,1,1,1,,1,1,1,,,,1,,https://www.otodom.pl/oferta/przestronne-sloneczne-ogrodek-wysoki-standard-ID464oJ.html
60488543,private,5/12/2020 16:53,8357,468000,3.0714,"Poznań, Grunwald, Łazarz, ul. Floriana Stablewskiego 13",87,52.392355,16.8971021,56,3,primary,tenement,ground_floor,3,brick,plastic,,,ready_to_use,190,full_ownership,,,,1,,1,,1,,1,1,,,,,1,,1,1,,1,1,,,,,,,https://www.otodom.pl/oferta/dwie-mikro-kawalerki-centrum-poznania-ID45NPF.html
60547837,business,5/27/2020 16:44,7211,349000,3.4786,"Poznań, Grunwald, Łazarz, ul. Józefa Chociszewskiego",87,52.3927636,16.8895791,48.4,2,secondary,block,floor_2,3,brick,plastic,urban,1953,to_renovation,335,full_ownership,,,1,,,1,,1,,,,,,,,,,,,,,,,,,,,,https://www.otodom.pl/oferta/mieszkanie-z-klimatem-na-lazarzu-ID463g1.html
60504738,private,5/16/2020 16:23,7305,489000,2.5528,"Poznań, Wilda, ul. Jana Umińskiego",107,52.3893786,16.912692,66.94,3,secondary,tenement,floor_2,4,brick,plastic,gas,1901,ready_to_use,215,full_ownership,,,,1,,1,,,,,1,,,,,,,1,,,1,1,,,,,,,https://www.otodom.pl/oferta/pilnie-bezposrednio-ul-uminskiego-66-94m2-ID45S2S.html
60603190,business,6/11/2020 16:35,7016,449000,3.4023,"Poznań, Stare Miasto, Winogrady, os. Wichrowe Wzgórze",109,52.438841,16.9344779,64,3,secondary,block,floor_2,4,concrete_plate,plastic,urban,,ready_to_use,650,co_operative_ownership,,,1,1,1,1,,1,,,,1,,1,1,1,1,1,,1,,,,,,,,,https://www.otodom.pl/oferta/3-pokoje-winogrady-os-wichrowe-wzgorze-2-pietro-ID46hEO.html
60205222,private,2/10/2020 12:25,8400,339192,2.5278,"Poznań, Grunwald, ul. Józefa Chełmońskiego 10",79,52.40088411,16.89888038,40.38,2,primary,tenement,floor_1,4,brick,wooden,urban,1908,to_completion,210,full_ownership,,,1,1,,,,1,,,,1,,,,,,,,1,,,,,,,,,https://www.otodom.pl/oferta/rewitalizowana-kamienica-obok-parku-willsona-ID44C7Y.html
60603160,business,6/11/2020 16:03,7485,244000,3.3913,"Poznań, Nowe Miasto, Rataje",98,52.37926392,16.94972639,32.6,2,primary,block,ground_floor,9,breezeblock,plastic,urban,2021,to_completion,,full_ownership,,1,1,1,,,1,1,,1,,1,,,1,,,,,1,,,1,,,,,,https://www.otodom.pl/oferta/pilne-2-pok-w-swietnej-lokalizacji-mp-i-ogrodek-ID46hEk.html
60454222,private,5/3/2020 22:45,6903,399000,3.093,"Poznań, Jeżyce, Ogrody, ul. Jana Henryka Dąbrowskiego",92,52.41507299,16.88992983,57.8,3,secondary,block,floor_5,7,brick,plastic,urban,1963,ready_to_use,600,co_operative_ownership_with_a_land_and_mortgage_registe,,,1,1,1,1,1,1,,,1,1,,,1,1,,1,,,1,1,,,,,,,https://www.otodom.pl/oferta/3-pokoje-ogrody-jezyce-po-remoncie-spizarnia-ID45EU6.html
60348126,private,3/22/2020 20:25,9119,435000,5.2541,"Poznań, Grunwald, Marcelin, ul. Wałbrzyska",89,52.40362527,16.85705245,47.7,2,primary,apartment,floor_3,4,silikat,plastic,urban,2019,ready_to_use,430,full_ownership,6/12/2020,,,1,1,,1,,,,,,1,,,,,,,,,,,,,,,,https://www.otodom.pl/oferta/topowa-lokalizacja-2-pokoje-marcelin-brak-pcc-ID45diS.html
60603156,business,6/11/2020 15:54,7100,319500,1.844,"Poznań, Nowe Miasto, Chartowo, Piotra Tomickiego",73,52.41001,16.96117,45,2,secondary,,floor_1,2,,,,,,,full_ownership,,,,,,,,,,,,,,,,1,,1,,,,1,,,1,,,,https://www.otodom.pl/oferta/srodka-komandoria-45-m2-2-pokoje-i-pietro-ID46hEg.html
60603113,business,6/11/2020 15:43,6595,339000,2.975,"Poznań, Jeżyce, Winiary, ul. Piątkowska",108,52.4321162,16.9143275,51.4,2,secondary,block,floor_3,5,concrete_plate,plastic,urban,,ready_to_use,480,full_ownership,,,1,1,1,1,1,1,,,,1,,1,,,1,,1,,,,,,,,,,https://www.otodom.pl/oferta/2-pokoje-50-m-2-piatkowska-winiary-ID46hDz.html
60603044,business,6/11/2020 14:55,5750,332752.5,4.3678,"Poznań, Grunwald",79,52.38371,16.88386,57.87,1,secondary,,floor_2,3,,,,,ready_to_use,,full_ownership,,,,,,,,,,,,,1,,,,,,,,,,,,,,,,https://www.otodom.pl/oferta/grunwald-duza-kawalerka-60-m2-ii-pietro-parking-ID46hCs.html
60160979,business,1/28/2020 19:15,8752,378454,0.2746,"Poznań, Stare Miasto, Centrum",146768,52.4087068,16.9381151,43.24,2,primary,,ground_floor,5,,,urban,2020,,,,,,1,1,,,1,,,1,,,,,1,,,,,1,,,1,1,,1,1,,https://www.otodom.pl/oferta/nowe-od-developera-komfort-w-samym-centrum-poznan-ID44qCn.html
60194714,business,2/6/2020 16:46,7822,368740,1.9188,"Poznań, Nowe Miasto, Rataje",98,52.3995651,16.9585874,47.14,2,primary,,ground_floor,5,,,urban,,,,,,,1,1,,,1,1,,,,,,,1,,,,,1,,,1,1,,1,1,,https://www.otodom.pl/oferta/nowe-od-dewelopera-jedna-z-najbardziej-pozadanych-ID44zou.html
60380751,business,4/4/2020 16:25,6861,350581,4.3975,"Poznań, Stare Miasto, Naramowice",90,52.4462251,16.9522169,51.1,2,primary,block,floor_2,5,brick,,urban,2021,,,,,,1,1,1,,1,1,,1,,,,1,,,,,,,,,,,,,,,https://www.otodom.pl/oferta/dwa-duze-niezalezne-pokoje-z-mozliwoscia-wydziel-ID45lN5.html
60460703,business,5/5/2020 14:53,6345,386982,4.2437,"Poznań, Stare Miasto, Naramowice",90,52.4437446,16.9571155,60.99,4,primary,,floor_1,5,,,urban,2020,,,,,,1,1,1,,1,1,,1,,,,,1,,,,,,,,,,,,1,,https://www.otodom.pl/oferta/gotowe-do-odbioru-ostatnie-sztuki-4-pokoje-mozl-ID45GAD.html
60528322,business,5/22/2020 12:05,8529,580000,8.0415,"Poznań, Grunwald",79,52.413735,16.8159175,68,3,secondary,,floor_1,2,,,,1914,ready_to_use,,,,,1,1,,,,1,,1,,,,1,1,,,,,,,,,1,,,1,,https://www.otodom.pl/oferta/blisko-centrum-w-odrestaurowanej-kamienicy-ID45Ybg.html
60392264,business,4/9/2020 18:55,8011,446600,5.599,"Poznań, Grunwald",79,52.3857718,16.8602864,55.75,3,primary,block,floor_1,3,brick,plastic,,2020,,,,,,,1,1,,1,,,,,,,,,,,,,,,,,,,,,,https://www.otodom.pl/oferta/grunwald-nowe-od-dewelopera-niska-zabudowa-ID45oMM.html
60550941,private,5/28/2020 13:42,6983,287000,4.2344,"Poznań, Grunwald, Górczyn",78,52.38367121,16.88645708,41.1,2,secondary,tenement,ground_floor,2,brick,plastic,gas,,ready_to_use,360,full_ownership,,,1,,,1,,1,,,1,,1,1,,1,1,1,1,,1,1,,,,,,,https://www.otodom.pl/oferta/2-pokoje-w-cenie-kawalerki-okazja-ID46445.html
60380754,business,4/4/2020 16:25,6974,318716,4.3975,"Poznań, Stare Miasto, Naramowice",90,52.4462251,16.9522169,45.7,2,primary,block,floor_3,4,brick,plastic,,,,,,,,,,,,1,,,,,,,,,,,,,,,,,,,,,,https://www.otodom.pl/oferta/atrakcyjna-cena-uklad-niezalezny-nowoczesne-osie-ID45lN8.html
60475114,business,5/8/2020 17:55,7000,419440,2.0444,"Poznań, Stare Miasto, Winogrady",109,52.4265904,16.9361066,59.92,3,primary,block,floor_1,7,brick,plastic,,2020,,,,,,,,,,1,,,,,,,,,,,,,,,,,,,,,,https://www.otodom.pl/oferta/gotowe-do-odboru-7000-zl-za-m2-doskonala-lokal-ID45Kl4.html
60475122,business,5/8/2020 17:55,6798,329000,1.9289,"Poznań, Nowe Miasto, Rataje",98,52.3929682,16.9476151,48.4,2,secondary,block,,16,,,,,,,co_operative_ownership,,,,,1,,1,,,,,,,1,,,,,,,,,,,,,,,https://www.otodom.pl/oferta/sloneczne-i-przestronne-mieszkanie-na-ratajach-do-ID45Klc.html
60546814,business,5/27/2020 14:05,9364,820000,2.6983,"Poznań, Wilda",107,52.3866595,16.9159585,87.57,3,secondary,apartment,floor_2,5,reinforced_concrete,,,2009,,,,,,,,1,,1,,,,,,,,,,,,,1,,,,,,,,,https://www.otodom.pl/oferta/greenpoint-wysoki-standard-duza-przestrzen-87-ID462Zv.html
60576583,business,6/4/2020 11:55,7616,425421,2.7815,"Poznań, Nowe Miasto, Rataje",98,52.38356,16.9408,55.86,4,primary,,floor_6,6,,,,,,,,,,,,,,1,,,,,,,,,,,,,,,,,,,,,,https://www.otodom.pl/oferta/promocyjna-cena-dwa-miejsca-postojowe-w-cenie-mie-ID46aJF.html
60418602,private,4/21/2020 11:18,9969,352000,2.6768,"Poznań, Stare Miasto, Centrum, ul. Fabryczna",146768,52.3879257,16.91297419,35.31,2,secondary,apartment,floor_5,5,brick,plastic,urban,2019,to_completion,250,full_ownership,,,,1,,,,,,,,,1,,,,,,,1,,,1,1,,,,,https://www.otodom.pl/oferta/wilda-atrakcyjne-mieszkanie-z-tarasem-nowe-ID45wDA.html
60602848,business,6/11/2020 13:30,7036,437259,1.8982,"Poznań, Nowe Miasto, Malta",88,52.4009265,16.9594198,62.15,4,primary,block,floor_3,5,brick,plastic,urban,2021,,,,,,1,1,1,,1,1,,,,,,,,,,,,,,,,,,,,,https://www.otodom.pl/oferta/malta-promocja-miesjce-postojowe-w-hali-garazowe-ID46hzi.html
60602845,business,6/11/2020 13:30,7195,358603,1.8982,"Poznań, Nowe Miasto, Malta",88,52.4009265,16.9594198,49.84,3,primary,block,floor_2,5,brick,plastic,urban,2021,,,,,,1,1,1,,1,1,,,,,,,,,,,,,,,,,,,,,https://www.otodom.pl/oferta/malta-promocja-miejsce-postojowe-w-cenie-mieszka-ID46hzf.html
60602843,business,6/11/2020 13:30,8650,304912,1.8982,"Poznań, Nowe Miasto, Malta",88,52.4009265,16.9594198,35.25,2,primary,block,floor_3,5,brick,plastic,urban,2021,,,,,,1,1,1,,1,1,,,,,,,,,,,,,,,,,,,,,https://www.otodom.pl/oferta/malta-nowe-od-dewelopera-duze-rabaty-do-konca-cz-ID46hzd.html
60602840,business,6/11/2020 13:30,8454,343069,2.7815,"Poznań, Nowe Miasto, Rataje",98,52.38356,16.9408,40.58,2,primary,block,floor_6,6,brick,plastic,urban,2021,,,,,,1,1,1,,1,1,,,,,,,,,,,,,,,,,,,,,https://www.otodom.pl/oferta/rataje-promocja-w-cenie-mieszkania-2-miejsca-pos-ID46hza.html
60602828,business,6/11/2020 13:30,7734,313363,1.8982,"Poznań, Nowe Miasto, Malta",88,52.4009265,16.9594198,40.52,2,primary,block,ground_floor,5,brick,plastic,,,,,,,,,,,,1,,,,,,,,,,,,,,,,,,,,,,https://www.otodom.pl/oferta/promocyjna-cena-miejsce-postojowe-w-cenie-miesz-ID46hyY.html
60602799,business,6/11/2020 13:05,7955,350000,1.9883,"Poznań, Nowe Miasto, Rataje, os. Piastowskie",98,52.391343,16.9437168,44,2,secondary,,ground_floor,4,,,urban,1970,,420,,,,,,,,1,,,,,,,,,,,,,,,,,,,,,,https://www.otodom.pl/oferta/44m-os-piastowskie-typu-open-space-ID46hyw.html
60602750,private,6/11/2020 12:37,12236,1100000,3.7609,"Poznań, Grunwald, ul. Brzask",79,52.4068815,16.878737,89.9,3,secondary,block,floor_1,4,,plastic,,,ready_to_use,,full_ownership,,,1,1,1,,1,1,1,,,1,1,1,1,1,1,1,,1,1,1,1,1,,1,,,https://www.otodom.pl/oferta/przestronne-luksusowe-mieszkanie-stary-grunwald-ID46hxI.html
60602718,private,6/11/2020 12:23,8136,310000,2.6363,"Poznań, Stare Miasto, Winogrady, os. Przyjaźni",109,52.43143581,16.92606234,38.1,2,secondary,block,floor_2,12,concrete_plate,plastic,urban,,ready_to_use,,co_operative_ownership,,,1,,,1,1,1,,,,1,,,,1,1,1,1,,1,1,,,1,,,,https://www.otodom.pl/oferta/2-pokoje-os-przyjazni-w-pelni-umeblowane-ID46hxc.html
60485943,private,5/12/2020 11:27,8491,225000,2.9161,"Poznań, Stare Miasto, Winogrady, os. Kosmonautów",109,52.43369843,16.94449019,26.5,1,secondary,block,floor_higher_10,12,concrete,plastic,urban,1976,ready_to_use,250,co_operative_ownership,,,,1,,1,,,,,,,,1,,,,,,,,,,,,,,,https://www.otodom.pl/oferta/kawalerka-widna-kuchnia-26-5-m-winogrady-poznan-ID45N9J.html
60582150,business,6/5/2020 14:41,5589,349000,2.6983,"Poznań, Wilda, ul. Pamiątkowa",107,52.3866595,16.9159585,62.44,3,secondary,tenement,floor_3,4,brick,wooden,urban,1930,to_renovation,310,full_ownership,6/5/2020,1,1,1,,,,1,,,,1,,,1,,,,,,,,,1,,,,,https://www.otodom.pl/oferta/mieszkanie-pod-inwestycje-na-wildzie-3-pokoje-ID46cbs.html
60602565,business,6/11/2020 11:20,11324,360000,0.2746,"Poznań, Stare Miasto, Centrum",146768,52.4087068,16.9381151,31.79,2,primary,apartment,floor_4,5,brick,plastic,urban,2020,to_completion,,full_ownership,,1,1,1,1,,1,1,,,,1,1,1,1,,,,,1,,,,1,,,,,https://www.otodom.pl/oferta/scisle-centrum-garbary-esencja-garaz-w-cenie-ID46huJ.html
59585338,private,8/14/2019 13:18,8600,509980,2.8451,"Poznań, Grunwald, Łazarz, Glogowska 82",87,52.39469232,16.8985636,59.3,2,secondary,tenement,floor_2,5,brick,wooden,gas,1905,to_completion,450,full_ownership,8/14/2019,,1,1,1,1,,1,,,,1,,,,,,,,1,,,,1,,,,,https://www.otodom.pl/oferta/na-sprzedaz-mieszkanie-dwupojowe-w-kamienicy-ID420RQ.html
60602504,business,6/11/2020 10:41,8601,344886,2.8062,"Poznań, Nowe Miasto, Rataje",98,52.38497447,16.95015555,40.1,2,primary,block,floor_6,6,,plastic,,,,,,3/30/2021,1,,1,1,,1,,,,,,1,,1,,,,,,,,,,,,,,https://www.otodom.pl/oferta/hot-2pok-40-1m2-w-cenie-2-x-miejsce-postojowe-hms-ID46htK.html
60099046,private,1/11/2020 14:45,14778,1450000,2.2992,"Poznań, Grunwald, Łazarz, ul. Elizy Orzeszkowej 16A",87,52.402567,16.9015444,98.12,3,secondary,apartment,floor_3,3,concrete,aluminium,urban,2018,ready_to_use,1100,full_ownership,5/1/2020,,1,1,1,1,1,1,,,1,1,1,,1,1,1,1,1,,1,1,,1,1,,,,https://www.otodom.pl/oferta/apartment-przy-mtp-i-p-wilsona-bezposrednio-98m2-ID44aws.html
60602475,business,6/11/2020 10:32,5736,339000,4.8417,"Poznań, Stare Miasto, Naramowickie Osiedle, os. Władysława Łokietka",56985,52.4516192,16.9404139,59.1,3,secondary,block,floor_3,4,concrete_plate,plastic,urban,1987,to_renovation,500,,,,1,,1,1,,1,,,,1,,,,,,,,,,,,,,,,,https://www.otodom.pl/oferta/najtaniej-ID46hth.html
60602458,private,6/11/2020 10:25,5243,410000,3.8757,"Poznań, Nowe Miasto, Rataje, os. Orła Białego",98,52.3790374,16.9653188,78.2,3,secondary,block,floor_higher_10,16,concrete_plate,plastic,urban,,ready_to_use,,co_operative_ownership,,,,1,1,1,1,,,,,,,1,,1,1,1,,,,1,,,,,,,https://www.otodom.pl/oferta/mieszkanie-w-poznaniu-rataje-nizsza-cena-ID46ht0.html
60602447,business,6/11/2020 10:16,8599,344886,3.2908,"Poznań, Nowe Miasto, Rataje",98,52.37947349,16.94552069,40.11,2,primary,block,floor_6,6,,plastic,urban,2021,to_completion,,full_ownership,,,1,1,1,,1,1,,,,,1,,,,,,,,,,,,,,,,https://www.otodom.pl/oferta/promocja-m-2-2-miejsca-postojowe-smarthome-ID46hsP.html
60602438,business,6/11/2020 10:12,7950,257341,2.6785,"Poznań, Nowe Miasto, Rataje",98,52.3860222,16.94938307,32.37,2,primary,block,ground_floor,6,,plastic,urban,,,,,3/30/2021,1,,1,,,1,,,1,,,1,,1,,,,,,,,1,,,,,,https://www.otodom.pl/oferta/ogrodek-z-tarasem-2pok-32-37m2-mozliwy-rabat-ID46hsG.html
60571079,business,6/3/2020 7:32,9322,499000,6.0622,"Poznań, Jeżyce, Strzeszyn, ul. Tadeusza Mikke",105,52.444194,16.8669195,53.53,3,secondary,apartment,floor_1,4,silikat,wooden,urban,2019,ready_to_use,450,full_ownership,6/5/2020,1,1,1,1,1,1,1,,,1,1,1,,1,,1,1,,1,,1,1,,,,,,https://www.otodom.pl/oferta/wymarzone-ekskluzywne-mieszkanie-zielony-strzeszyn-ID469iT.html
60549381,private,5/28/2020 2:00,6982,398000,0.042,"Poznań, Grunwald, Świerczewo",106,52.40827,16.93352,57,3,secondary,block,floor_3,3,brick,plastic,urban,2011,ready_to_use,,full_ownership,,,1,1,1,1,,1,1,,,,,1,1,1,1,1,1,,1,1,,,,,,,https://www.otodom.pl/oferta/nowoczesne-mieszkanie-7-km-od-centrum-poznania-ID463EW.html
60602395,business,6/11/2020 9:44,6345,386982,4.193,"Poznań, Stare Miasto, Naramowice",90,52.44439584,16.95172984,60.99,4,primary,block,floor_1,4,,plastic,urban,2020,to_completion,,full_ownership,,,1,1,1,,1,1,,,,,1,,,,,,,,,,,,,,,,https://www.otodom.pl/oferta/nowa-promocyjna-cena-ID46hrZ.html
60183927,private,2/4/2020 14:46,6990,386547,2.8455,"Poznań, Grunwald, Łazarz, ul. Głogowska",87,52.39445331,16.89880421,55.3,3,secondary,tenement,floor_4,5,brick,plastic,gas,1905,to_completion,426,full_ownership,2/5/2020,,1,1,,,,1,,,1,,,1,,,,,,1,,,,1,,,,,https://www.otodom.pl/oferta/sprzedam-mieszkanie-trzypokojowe-w-kamienicy-ID44vAw.html
60602319,private,6/11/2020 8:30,9457,435000,0.042,"Poznań, Grunwald",79,52.40827,16.93352,46,2,secondary,apartment,ground_floor,4,brick,plastic,urban,2019,ready_to_use,,full_ownership,,,1,1,,,1,1,1,1,,,1,,1,,,,,1,,,,1,,,,,https://www.otodom.pl/oferta/apartament-z-2020-z-ogrodkiem-ID46hqL.html
60602393,business,6/11/2020 9:38,7108,348811,3.5908,"Poznań, Nowe Miasto, Rataje",98,52.39780742,16.98423033,49.07,3,primary,block,ground_floor,5,,plastic,urban,2021,to_completion,,full_ownership,,,1,1,,,1,1,,1,,1,1,,,,,,,,,,1,,,,,,https://www.otodom.pl/oferta/mega-okazje-miejsce-postojowe-smarthome-w-cenie-ID46hrX.html
60403617,private,4/16/2020 0:30,7179,560000,6.0729,"Poznań, Stare Miasto, Piątkowo, os. Stefana Batorego",93,52.46240612,16.92260866,78,3,secondary,block,floor_3,3,brick,plastic,urban,2001,to_completion,315,full_ownership,,,1,1,1,,,1,1,,,1,1,1,,,,1,,1,1,1,1,1,,,,,https://www.otodom.pl/oferta/78m2-garaz-16-10-m2-os-st-batorego-ataner-ID45rJT.html
57361432,private,1/12/2019 19:48,8094,429000,0.042,"Poznań, Grunwald, Grunwald",79,52.40827,16.93352,53,2,secondary,tenement,floor_1,2,brick,plastic,urban,1960,ready_to_use,420,full_ownership,3/21/2019,,1,1,1,1,,1,,,,1,,1,,1,1,1,1,,1,1,,,,,,,https://www.otodom.pl/oferta/wyjatkowe-po-remoncie-designerskie-grunwald-ID3SGko.html
60430906,business,4/24/2020 22:02,6429,180000,3.9601,"Poznań, Wilda, Dolna Wilda",5221,52.3767767,16.9067985,28,1,secondary,,,,,plastic,,,ready_to_use,82,full_ownership,,,,1,,,,,,,,,,,1,,,,,,,,,,,,,,https://www.otodom.pl/oferta/kawalerka-na-wildzie-ID45yQ2.html
60439023,business,4/28/2020 11:25,10771,405000,0.1549,"Poznań, Stare Miasto",103,52.4073541,16.9358969,37.6,2,secondary,apartment,floor_4,5,,wooden,urban,2012,ready_to_use,415,full_ownership,,,1,1,,,1,1,,,,,,,1,1,1,1,1,1,1,1,,,1,,,,https://www.otodom.pl/oferta/mieszkanie-dwupokojowe-na-starym-miescie-ID45AVX.html
59437139,business,7/5/2019 21:36,7580,379000,2.7292,"Poznań, Wilda, ul. Fabryczna 35",107,52.3870381,16.9138761,50,3,secondary,tenement,ground_floor,3,brick,plastic,urban,,ready_to_use,,full_ownership,,,,1,,1,,,,,,,,,,,1,,,,,,,,,,,,https://www.otodom.pl/oferta/bezposrednio-fabryczna-35-wilda-3-pokoje-ID41ojx.html
60180967,business,2/3/2020 20:36,7347,529000,1.5132,"Poznań, Stare Miasto, ul. św. Czesława",103,52.3970803,16.9213781,72,5,secondary,tenement,floor_4,4,brick,plastic,gas,,ready_to_use,,full_ownership,,,,,,,,,,,,,,,,,,,,,,,,,,,,,https://www.otodom.pl/oferta/bezposrednio-5-pokoi-przy-sw-czeslawa-roi-10-ID44wOL.html
60602112,business,6/11/2020 0:45,8577,419000,4.1327,"Poznań, Grunwald, Górczyn, Górczyńska",78,52.3879323,16.8831228,48.85,2,secondary,block,floor_4,11,,,urban,2012,ready_to_use,499,full_ownership,,,1,,1,1,1,1,,1,,,1,,,,1,,,,,,,,,,,,https://www.otodom.pl/oferta/wysoki-standard-nowoczesnie-urzadzone-ID46hnq.html
60181017,business,2/3/2020 20:55,7347,529000,2.7184,"Poznań, Jeżyce, Sołacz, Maczka",100,52.42425,16.90384,72,5,secondary,block,floor_1,,,plastic,urban,,ready_to_use,,full_ownership,,,,,,,,,,,,,,,,,,,,,,,,,,,,,https://www.otodom.pl/oferta/bezposrednio-5-niezaleznych-pokoi-roi-10-ID44wPz.html
60602083,business,6/11/2020 0:23,9052,525000,1.7928,"Poznań, Jeżyce, Zwierzyniecka",80,52.40793407,16.90771158,58,2,primary,apartment,floor_1,4,brick,plastic,urban,2018,ready_to_use,,,2/8/2019,,1,1,1,,1,1,,,,,,,1,,,,,,,,,1,,1,,,https://www.otodom.pl/oferta/zajezdnia-piekne-mieszkanie-do-aranzacji-ID46hmX.html
60602060,business,6/11/2020 0:10,6323,359000,3.2452,"Poznań, Wilda",107,52.3813102,16.9157106,56.78,3,secondary,block,floor_4,5,brick,plastic,urban,1963,,455,,,,,,1,1,,,,,,,,,,,,,,1,,,,,,,,,https://www.otodom.pl/oferta/dzielnica-wilda-super-lokalizacja-ID46hmA.html
59991444,private,11/29/2019 9:36,9354,449000,1.7583,"Poznań, Jeżyce, ul. Poznańska",80,52.4139057,16.9099331,48,2,secondary,tenement,floor_1,3,brick,wooden,boiler_room,1902,ready_to_use,314,full_ownership,5/5/2020,,1,1,,,,1,,,,1,,,,,,,,1,,,,1,,,,,https://www.otodom.pl/oferta/wyjatkowe-mieszkanie-na-jezycach-bez-prowizji-ID43IwV.html
60544553,private,5/26/2020 23:50,7741,449000,4.4328,"Poznań, Grunwald",79,52.39591,16.872,58,3,secondary,block,floor_4,4,brick,plastic,urban,1980,ready_to_use,,full_ownership,,,,1,1,1,,1,,,,,,1,,1,1,1,1,,1,1,,,,,,,https://www.otodom.pl/oferta/bezposrednio-3-pokoje-58m2-dobra-lokalizacja-ID462p3.html
60495011,business,5/14/2020 1:25,7571,265000,4.329,"Poznań, Nowe Miasto, Rataje",98,52.3878065,16.9884479,35,1,secondary,,floor_10,10,,,,,,,,,,,,,,1,,,,,,,,,,,,,,,,,,,,,,https://www.otodom.pl/oferta/rataje-os-rusa-kawalerka-35m2-ID45PwZ.html
60503386,business,5/15/2020 23:25,8113,430000,4.8285,"Poznań, Stare Miasto, Piątkowo, os. Bol. Chrobrego 24",93,52.45028188,16.91628456,53,2,secondary,ribbon,floor_4,5,brick,plastic,urban,2006,ready_to_use,540,,,,1,1,,1,1,,,,,,,1,,,,,,,,,,,,,,,https://www.otodom.pl/oferta/piatkowo-os-bol-chrobergo-24-nowsze-2-pok-ID45RH4.html
60428029,business,4/24/2020 0:25,5437,420000,3.3318,"Poznań, Nowe Miasto, Rataje",98,52.3799218,16.9501801,77.25,3,secondary,,floor_9,16,,,,,,,,,,,,,,1,,,,,,,,,,,,,,,,,,,,,,https://www.otodom.pl/oferta/rataje-os-armii-krajowej-3-pok-77-25-m2-ID45y5D.html
60601867,business,6/10/2020 22:39,8750,363037.5,4.8715,"Poznań, Nowe Miasto",91,52.37832,16.98658,41.49,2,primary,apartment,floor_6,8,breezeblock,plastic,urban,2021,to_completion,,,,,1,1,1,,1,1,,,,,1,,,,,,,,,,,,,,,,https://www.otodom.pl/oferta/mieszkanie-2-pokoj3-swietna-lokalizacja-1-a-6-3-ID46hjt.html
60579751,private,6/4/2020 22:28,6054,339000,5.1006,"Poznań, Nowe Miasto, Rataje, os. Przemysława",98,52.3903944,17.0033961,56,3,secondary,block,floor_5,5,brick,plastic,urban,1993,ready_to_use,450,full_ownership,,,1,1,,,,1,,,,,,1,1,,1,,,,,,,,,,,,https://www.otodom.pl/oferta/po-generalnym-remoncie-56m2-os-przemyslawa-ID46byL.html
60601833,business,6/10/2020 22:26,7300,423619,4.8715,"Poznań, Nowe Miasto",91,52.37832,16.98658,58.03,4,primary,apartment,ground_floor,5,other,plastic,urban,2021,to_completion,,,,,1,1,,,1,1,,,,,1,,,,,,,,,,1,,,,,,https://www.otodom.pl/oferta/duze-mieszkanie-z-tarasem-2b-0-06-ID46hiW.html
60601820,business,6/10/2020 22:22,7800,372216,4.8715,"Poznań, Nowe Miasto",91,52.37832,16.98658,47.72,3,primary,apartment,ground_floor,5,other,plastic,urban,2021,to_completion,,,,,1,1,,,1,1,,,,,1,,,,,,,,,,1,,,,,,https://www.otodom.pl/oferta/mieszkanie-3-pokoje-z-tarasem-2b-0-06-ID46hiI.html
60544275,private,5/26/2020 22:10,7895,375000,6.1339,"Poznań, Jeżyce, Podolany, ul. Strzeszyńska",94,52.454204,16.8840962,47.5,2,secondary,block,ground_floor,4,silikat,plastic,urban,2012,ready_to_use,,full_ownership,,,1,1,,1,1,1,1,1,,,1,,1,1,,1,,1,1,1,,,,,,,https://www.otodom.pl/oferta/sprzedam-mieszkanie-poznan-strzeszynska-ID462kz.html
60561237,private,5/31/2020 21:12,8368,318000,1.8983,"Poznań, Nowe Miasto, Rataje, Piastowskie 60",98,52.39215091,16.94348221,38,2,secondary,block,floor_3,10,concrete_plate,plastic,urban,1980,ready_to_use,,co_operative_ownership_with_a_land_and_mortgage_registe,,,,1,,1,1,,,,,,,1,,1,1,1,1,,,1,,,,,,,https://www.otodom.pl/oferta/bezposrednio-inwestycyjne-2-pokoje-po-remoncie-ID466K9.html
60601560,business,6/10/2020 20:55,8289,315000,0.9561,"Poznań, Stare Miasto, Winogrady, os. Przyjaźni",109,52.39965235,16.93473818,38,2,secondary,block,floor_1,12,,,urban,1980,ready_to_use,,co_operative_ownership,,,,,,,1,,,,,,,,,,,,,,,,,,,,,,https://www.otodom.pl/oferta/2-niezalezne-pokoje-przy-pst-winogrady-ID46hev.html
60601536,business,6/10/2020 20:43,7950,333900,3.2609,"Poznań, Jeżyce, Winiary",108,52.43315,16.90875,42,2,primary,block,ground_floor,4,,plastic,boiler_room,2021,to_completion,,full_ownership,7/1/2021,,1,1,,,1,1,,,,,1,,,,,,,,,,1,,,,,,https://www.otodom.pl/oferta/2-pokoje-42-m2-bez-prowizji-ID46he8.html
60517079,private,5/19/2020 20:39,7681,487000,3.6352,"Poznań, Nowe Miasto, osiedle Stare Żegrze /  RATAJE",91,52.3821611,16.96644284,63.4,3,secondary,block,floor_higher_10,11,concrete_plate,plastic,urban,,ready_to_use,560,co_operative_ownership_with_a_land_and_mortgage_registe,,,1,1,1,,1,,,,1,,,,1,,,1,,,1,1,1,,,,,,https://www.otodom.pl/oferta/poznan-rataje-os-stare-zegrze-ID45WfW.html
60504885,private,5/16/2020 17:48,11500,316940,0.428,"Poznań, Stare Miasto, ul. Romana Szymańskiego 8",103,52.4052932,16.9300836,27.56,1,primary,tenement,floor_3,4,brick,plastic,urban,,,,full_ownership,,,1,1,,,,1,,,,1,,,1,,,,,,,,,1,,,,,https://www.otodom.pl/oferta/stylowe-w-kamienicy-szymanskiego-8-bezposr-fv-ID45S5f.html
60601525,business,6/10/2020 20:35,9139,329000,4.9664,"Poznań, Grunwald, Pogodna",79,52.3888235,16.8682157,36,2,secondary,block,floor_3,3,,,urban,1968,,,,,,,,,1,,,,,1,,,,,,,,,,,,,,,,,,https://www.otodom.pl/oferta/2-olsniewajace-pokoje-grunwald-ID46hdX.html
60601523,business,6/10/2020 20:35,8392,318900,0.9561,"Poznań, Stare Miasto, Winogrady, os. Przyjaźni",109,52.39965235,16.93473818,38,2,secondary,block,floor_2,12,,,urban,1980,ready_to_use,,co_operative_ownership,,,,,,,1,,,,,,,,,,,,,,,,,,,,,,https://www.otodom.pl/oferta/2-urocze-pokoje-w-klasycznym-wydaniu-os-przyjazni-ID46hdW.html
60352395,business,3/24/2020 11:59,9705,369000,1.5942,"Poznań, Wilda, Górna Wilda",62283,52.3973979,16.9187674,38.02,2,secondary,block,ground_floor,5,,plastic,urban,2009,ready_to_use,320,full_ownership,,,,1,,,,,1,,,,1,,1,1,1,1,1,1,1,1,,,,,,,https://www.otodom.pl/oferta/urzadzone-mieszkanie-2-pokojowe-zamkniete-osiedle-ID45epJ.html
60368257,business,3/30/2020 20:38,8614,429000,5.481,"Poznań, Stare Miasto, Naramowice",90,52.45695,16.94658,49.8,2,secondary,block,floor_1,,breezeblock,plastic,urban,,ready_to_use,450,full_ownership,,,1,1,1,,1,1,,,,1,,,1,1,1,1,,1,1,1,,,,,,,https://www.otodom.pl/oferta/urzadzone-2-pokojowe-mieszkanie-na-naramowicach-ID45ixz.html
60509954,business,5/18/2020 13:58,12371,600000,1.8278,"Poznań, Jeżyce",80,52.4085739,16.9071966,48.5,2,secondary,apartment,floor_2,5,,plastic,urban,2019,ready_to_use,300,full_ownership,,,1,1,1,,1,1,,,,1,1,,1,1,1,1,1,1,1,1,1,1,1,1,,,https://www.otodom.pl/oferta/zajezdnia-urzadzony-sloneczny-apartament-ID45Tp0.html
60584194,business,6/5/2020 22:33,6821,399000,2.5555,"Poznań, Jeżyce",80,52.4101495,16.8965917,58.5,2,secondary,tenement,ground_floor,3,,plastic,,,ready_to_use,500,,,,,1,,,,,,,,,,,1,1,,1,1,1,,1,,,,,,,https://www.otodom.pl/oferta/mieszkanie-dwupokojowe-na-jezycach-ID46cIq.html
60601325,business,6/10/2020 19:25,5382,479000,1.4029,"Poznań, Wilda, Wierzbięcice",107,52.39800677,16.92204745,89,4,secondary,tenement,ground_floor,4,brick,,gas,1930,to_completion,,,,,,,1,,,,,,,,,,,,,,,,,,,,,,,,https://www.otodom.pl/oferta/doskonale-na-biuro-4-pokojowe-mieszkanie-na-wildzi-ID46haJ.html
60584394,business,6/5/2020 23:24,8386,399000,4.844,"Poznań, Jeżyce, Podolany, ul. Jasielska",94,52.4440584,16.8934622,47.58,2,secondary,block,floor_3,5,,plastic,,,ready_to_use,,,,,,1,1,,,,,,1,,,,1,,,,,,,,,,,,,,https://www.otodom.pl/oferta/mieszkanie-dwupokojowe-nowe-podolany-ID46cLE.html
59945857,private,11/16/2019 22:02,9500,570000,5.0279,"Poznań, Grunwald, Rembertowska",79,52.38585304,16.8697528,60,3,secondary,apartment,floor_1,5,,wooden,urban,2014,ready_to_use,350,full_ownership,6/1/2020,,1,1,1,,1,1,,,,1,1,1,1,,,,,1,,,,1,,,,,https://www.otodom.pl/oferta/z-widokiem-na-park-2-duze-balkony-winda-garaz-ID43vEF.html
60502257,business,5/15/2020 17:48,9217,402982,0.6777,"Poznań, Stare Miasto, Centrum",146768,52.41327981,16.93976388,43.72,2,primary,block,floor_1,5,brick,plastic,urban,2020,to_completion,,full_ownership,,,1,1,1,,1,1,,,,1,,,1,,,,,1,,,,1,,,,,https://www.otodom.pl/oferta/apartament-10-minut-od-starego-rynku-ID45RoR.html
60583765,business,6/5/2020 20:13,7950,257341,3.3129,"Poznań, Nowe Miasto, Żegrze",18856,52.37913017,16.9445248,32.37,2,primary,block,ground_floor,8,brick,plastic,urban,2021,to_completion,,full_ownership,,,1,1,,,1,1,,1,,1,,,1,,,,,,,,1,,,,,,https://www.otodom.pl/oferta/bardzo-dobra-lokata-kapitalu-bezposrednio-ID46cBw.html
59670955,private,9/6/2019 11:39,11302,599000,1.1562,"Poznań, Wilda",107,52.41847535,16.93110601,53,2,secondary,apartment,,4,brick,plastic,urban,2015,ready_to_use,600,full_ownership,,,1,1,,,1,1,1,1,,,,,1,1,1,1,1,1,1,1,1,,1,,,,https://www.otodom.pl/oferta/wyjatkowy-apartament-nad-warta-w-centrum-poznania-ID42n8L.html
60601082,private,6/10/2020 18:08,6365,485000,5.6774,"Poznań, Jeżyce, Strzeszyn, ul. Eurypidesa",105,52.4457512,16.87732,76.2,3,secondary,block,floor_2,2,,plastic,gas,2000,ready_to_use,440,full_ownership,,,1,1,1,1,,1,,1,,,1,1,,,,1,1,,1,,,,,,,,https://www.otodom.pl/oferta/strzeszyn-bezposrednio-mozliwosc-dwoch-poziomow-ID46h6O.html
60138655,business,1/22/2020 13:07,7000,419440,3.3254,"Poznań, Stare Miasto, Winogrady, ul. Hawelańska",109,52.4362271,16.951442,59.92,3,primary,block,floor_1,7,,,,2019,,,,,,,,1,,,,,,,,,,,,,,,,,,1,,,,,,https://www.otodom.pl/oferta/mieszkanie-w-inwestycji-hawelanskae-e3-1-3-ID44kOj.html
60138676,business,1/22/2020 13:11,7000,384440,3.3254,"Poznań, Stare Miasto, Winogrady, ul. Hawelańska",109,52.4362271,16.951442,54.92,3,primary,block,floor_1,7,,,,2019,,,,,,,,1,,,,,,,,,,,,,,,,,,1,,,,,,https://www.otodom.pl/oferta/mieszkanie-w-inwestycji-hawelanskae-e2-1-7-ID44kOE.html
60138691,business,1/22/2020 13:14,7000,386330,3.3254,"Poznań, Stare Miasto, Winogrady, ul. Hawelańska",109,52.4362271,16.951442,55.19,3,primary,block,floor_1,7,,,,2019,,,,,,,,1,,,,,,,,,,,,,,,,,,1,,,,,,https://www.otodom.pl/oferta/mieszkanie-w-inwestycji-hawelanskae-e2-1-4-ID44kOT.html
59791240,business,10/4/2019 9:30,6912,351198.72,2.4505,"Poznań, Nowe Miasto, Śródka, ul. Zaniemyska",102,52.4120493,16.969724,50.81,3,primary,block,floor_1,2,,,,2020,to_completion,,full_ownership,10/31/2020,,1,,1,,,1,,,1,1,1,,,,,,,,,,,,,,,,https://www.otodom.pl/oferta/zaniemyska-23-50m2-wkrotce-odbior-ID42SqQ.html
60600921,business,6/10/2020 17:22,8300,317558,4.8715,"Poznań, Nowe Miasto",91,52.37832,16.98658,38.26,2,primary,block,floor_2,5,breezeblock,plastic,urban,2021,to_completion,,full_ownership,3/31/2031,,1,,1,,1,1,,,,1,1,,,,,,,,,,,,,,,,https://www.otodom.pl/oferta/przytulne-2-pokojowe-mieszkanie-2e-2-02-ID46h4d.html
60600821,private,6/10/2020 17:08,7248,324000,4.7258,"Poznań, Wilda, Dębiec, ul. Jaworowa",74,52.3696793,16.9048616,44.7,2,secondary,block,floor_1,3,brick,plastic,urban,,ready_to_use,436,full_ownership,,,1,1,1,1,,1,,,,,,1,,1,1,1,1,,1,1,,,1,,,,https://www.otodom.pl/oferta/mieszkanie-2-pok-44-7-m-kw-debiec-ID46h2B.html
60600868,business,6/10/2020 17:11,6692,669000,2.0962,"Poznań, Jeżyce, Kościelna",80,52.4134873,16.9044516,99.97,4,secondary,apartment,floor_4,4,,,,2006,,,,,,,,,,1,,,,,,1,,,,,,,,,,,,,,,,https://www.otodom.pl/oferta/przestronny-apartament-miejsce-postojowe-w-cenie-ID46h3m.html
60600823,business,6/10/2020 17:09,9300,260772,4.8715,"Poznań, Nowe Miasto",91,52.37832,16.98658,28.04,1,primary,block,floor_2,5,breezeblock,plastic,urban,2021,to_completion,,full_ownership,3/31/2031,,1,,1,,1,1,,,,1,1,,,,,,,,,,,,,,,,https://www.otodom.pl/oferta/idealne-dla-singla-2-a-2-02-ID46h2D.html
60600800,business,6/10/2020 17:00,6915,325000,2.0439,"Poznań, Stare Miasto, Winogrady",109,52.42658,16.93625,47,3,secondary,block,floor_4,4,concrete_plate,plastic,urban,,ready_to_use,,co_operative_ownership,,,1,1,1,1,,1,,,,,,1,,1,1,1,,,,1,,,,,,,https://www.otodom.pl/oferta/3-pokoje-winogrady-ID46h2g.html
60424235,private,4/22/2020 21:41,6041,299999,4.3585,"Poznań, Grunwald, Zgoda 14",79,52.38375755,16.88397338,49.66,2,secondary,tenement,floor_2,3,brick,plastic,gas,1910,ready_to_use,300,full_ownership,4/1/2020,,1,1,,,,1,,,,1,1,,,1,1,1,1,,,1,,,,,,,https://www.otodom.pl/oferta/mieszkanie-poznan-gorczyn-50m2-bezposrednio-ID45x6r.html
60600784,business,6/10/2020 16:55,7800,372840,4.8715,"Poznań, Nowe Miasto",91,52.37832,16.98658,47.8,3,primary,block,ground_floor,5,breezeblock,plastic,urban,2021,to_completion,,full_ownership,3/31/2031,,1,,,,1,1,,1,,1,1,,,,,,,,,,,,,,,,https://www.otodom.pl/oferta/przestronne-mieszkanie-z-ogrodkiem-2-d-0-01-ID46h20.html
60600734,business,6/10/2020 16:50,7785,369000,1.8262,"Poznań, Nowe Miasto, Śródka, Piotra Tomickiego",102,52.4110855,16.9606554,47.4,2,secondary,block,,2,,,,1952,,464,,,,,,,,,,,,,,,,,,,,,,,,,,,,,,https://www.otodom.pl/oferta/przytulne-dwupokojowe-mieszkanie-ul-tomickiego-ID46h1c.html
60306531,private,3/8/2020 11:21,11925,430000,1.8278,"Poznań, Jeżyce, ul. Zwierzyniecka",80,52.4085739,16.9071966,36.06,2,secondary,apartment,floor_2,5,brick,plastic,urban,2017,ready_to_use,406,full_ownership,6/1/2020,,1,1,,,1,1,,,,1,,,,1,1,1,1,1,1,,1,,1,,,,https://www.otodom.pl/oferta/gotowe-do-zamieszkania-poznan-jezyce-zajezdnia-ID452tZ.html
60388961,private,4/8/2020 13:32,8447,265900,3.1567,"Poznań, Grunwald, Łazarz",87,52.39409,16.8938,31.48,1,primary,block,ground_floor,4,,plastic,urban,2019,to_completion,,,,,,1,,,,,,1,,,1,,1,,,,,,,,1,,,,,,https://www.otodom.pl/oferta/kawalerka-ID45nWw.html
60600586,business,6/10/2020 16:22,8370,226000,3.34,"Poznań, Nowe Miasto, Śródka",102,52.41685643,16.98131664,27,1,primary,block,ground_floor,,brick,plastic,urban,2021,to_completion,,full_ownership,,,,,,,,,,,,,,,,,,,,,,,,,,,,,https://www.otodom.pl/oferta/kawalerka-idealne-pod-inwestycje-ID46gYO.html
60542997,private,5/26/2020 15:56,8072,670000,2.7815,"Poznań, Nowe Miasto, Rataje",98,52.38356,16.9408,83,4,primary,apartment,floor_4,5,,,urban,2020,to_completion,,full_ownership,,,1,,1,,1,1,,,,,1,,,,,,,,,,,,,,,,https://www.otodom.pl/oferta/apartament-z-dwoma-miejscami-postoj-w-poznaniu-ID461ZX.html
60600331,business,6/10/2020 15:41,6791,438000,3.208,"Poznań, Stare Miasto, Piątkowo",93,52.4367374,16.926713,64.5,4,secondary,,floor_4,4,,,,,,,,,,,,,,,,,,,,,,,,,,,,,,,,,,,,https://www.otodom.pl/oferta/4-pokoje-os-zwyciestwa-niski-balkon-ID46gUH.html
